AirportName,IATA,ICAO,City_Name,Country_CodeA2,Country_CodeA3,Country_Name,GeoPointLat,GeoPointLong
Pilanesberg Intl,NTY,FAPN,Sun City,ZA,ZAF,South Africa,-25.333822,27.173358
Clovis Muni,CVN,KCVN,"Clovis, New Mexico",US,USA,United States of America,34.425139,-103.079278
Cannon Afb,CVS,KCVS,"Clovis, New Mexico",US,USA,United States of America,34.382775,-103.322147
Scammon Bay Airport,SCM,PACM,"Scammon Bay, Alaska",US,USA,United States of America,61.845278,-165.571389
Kapit,KPI,,Kapit,MY,MYS,Malaysia,2.017,112.95
Eagle River,EGV,KEGV,"Eagle River, Wisconsin",US,USA,United States of America,45.932333,-89.268283
Darnley Island Airport,NLF,YDNI,Darnley Island,AU,AUS,Australia,-9.58333,143.767
Lourdes De Blanc Sablon Airport,YBX,CYBX,Blanc Sablon,CA,CAN,Canada,51.4436,-57.1853
Uzhhorod International Airport,UDJ,UKLU,Uzhgorod,UA,UKR,Ukraine,48.634278,22.263356
Andahuaylas,ANS,SPHY,Andahuaylas,PE,PER,Peru,-13.706408,-73.350378
John H. Batten Airport,RAC,KRAC,"Racine, Wisconsin",US,USA,United States of America,42.7605,-87.8152
Yokota Ab,OKO,RJTY,Tokyo,JP,JPN,Japan,35.748492,139.348483
Narita Intl,NRT,RJAA,Tokyo,JP,JPN,Japan,35.764722,140.386389
Tokyo Intl,HND,RJTT,Tokyo,JP,JPN,Japan,35.552258,139.779694
TOKYO STA.MARUNOUCHI-KIT,TYQ,,Tokyo,JP,JPN,Japan,35.68083333,139.7675
Tokyo Bus Station,LMJ,,Tokyo,JP,JPN,Japan,35.6894875,139.6917064
Sheikh Zayed,RYK,OPRK,Rahim Yar Khan,PK,PAK,Pakistan,28.3839,70.279572
Capurgana Airport,CPB,SKCA,Capurgana,CO,COL,Colombia,8.616667,-77.333333
Easterwood Fld,CLL,KCLL,"College Station, Texas",US,USA,United States of America,30.588583,-96.363833
Cooma Snowy Mountains Airport,OOM,YCOM,Cooma,AU,AUS,Australia,-36.3006,148.974
Varanasi,VNS,VIBN,Varanasi,IN,IND,India,25.452358,82.859342
Alberto Carnevalli,MRD,SVMD,Merida,VE,VEN,Venezuela,8.582294,-71.161186
Vladimir,,,Vladimir,RU,RUS,Russian Federation,56.09083415,40.26313305
Canal Bajo Carlos Hott Siebert,ZOS,SCJO,Osorno,CL,CHL,Chili,-40.611208,-73.061042
Maximo Gomez,AVI,MUCA,Ciego De Avila,CU,CUB,Cuba,22.027053,-78.789617
Depati Amir,PGK,WIPK,Pangkalpinang,ID,IDN,Indonesia,-2.1622,106.139064
Lampedusa,LMP,LICD,Lampedusa,IT,ITA,Italy,35.497914,12.618083
Lubang Community Airport,LBX,RPLU,Lubang,PH,PHL,Philippines,13.855833,121.105833
Viru,VIU,,Viru,SB,SLB,Solomon Islands,-8.5,157.683
Kars Airport,KSY,LTCF,Kars,TR,TUR,Turkey,40.562222,43.115002
Port Gentil,POG,FOOG,Port Gentil,GA,GAB,Gabon,-0.711739,8.754383
Baotou Airport,BAV,ZBOW,Baotou,CN,CHN,China,40.56,109.997
Upington,UTN,FAUP,Upington,ZA,ZAF,South Africa,-28.399097,21.260239
Wiluna Airport,WUN,YWLU,Wiluna,AU,AUS,Australia,-26.6292,120.221
Dawson City,YDA,CYDA,Dawson City,CA,CAN,Canada,64.043056,-139.127778
Dundee,DND,EGPN,Dundee,GB,GBR,Great Britain (United Kingdom),56.452499,-3.025833
Newtok Airport,WWT,,"Newtok, Alaska",US,USA,United States of America,60.939167,-164.641111
Sissano,SIZ,,Sissano,PG,PNG,Papua New Guinea,0,0
Kopitnari,KUT,UGKO,Kutaisi,GE,GEO,Georgia,42.176653,42.482583
Tabiteuea North,TBF,NGTE,Tabiteuea North,KI,KIR,Kiribati,-1.224469,174.775614
Buon Ma Thuot Airport,BMV,VVBM,Banmethuot,VN,VNM,Viet Nam,12.668311,108.120272
Matecana,PEI,SKPE,Pereira,CO,COL,Colombia,4.812675,-75.739519
Ataq,AXK,OYAT,Ataq,YE,YEM,Yemen,14.551322,46.826183
Orange cudal,CUG,,Orange Springhill,AU,AUS,Australia,-33.2783,148.763
Orange Airport,OAG,YORG,Orange Springhill,AU,AUS,Australia,-33.3817,149.133
Don Muang Intl,DMK,VTBD,Bangkok,TH,THA,Thailand,13.912583,100.60675
Suvarnabhumi Intl,BKK,VTBS,Bangkok,TH,THA,Thailand,13.681108,100.747283
Cachimbo,ITB,,Itaituba,BR,BRA,Brazil,-4.2446,-56.00384
Bartow Municipal Airport,BOW,KBOW,"Bartow, Florida",US,USA,United States of America,27.9434,-81.7834
Nanyuki Civil Airport,NYK,HKNY,Nanyuki,KE,KEN,Kenya,-0.067,37.033
Babo,BXB,WASO,Babo,ID,IDN,Indonesia,-2.532242,133.438894
Mutiara Ii,LBJ,WATO,Labuan Bajo,ID,IDN,Indonesia,-8.486656,119.88905
Portsmouth Airport,PME,,Portsmouth,GB,GBR,Great Britain (United Kingdom),50.8,-1.083333
Theodore,TDR,YTDR,Theodore,AU,AUS,Australia,-24.986737,150.093112
Karlovy Vary,KLV,LKKV,Karlovy Vary,CZ,CZE,Czech Republic,50.202978,12.914983
Valle Del Fuerte Intl,LMM,MMLM,Los Mochis,MX,MEX,Mexico,25.685194,-109.080806
Mora,MXX,ESKM,Mora,SE,SWE,Sweden,60.957908,14.511383
Kaedi,KED,GQNK,Kaedi,MR,MRT,Mauritania,16.159547,-13.507617
Howard,HOW,MPHO,Fort Kobbe,PA,PAN,Panama,8.914794,-79.599633
Tete Chingodzi,TET,FQTT,Tete,MZ,MOZ,Mozambique,-16.104817,33.640181
Postville Airport,YSO,CCD4,Postville,CA,CAN,Canada,54.910278,-59.785278
Mehrabad Intl,THR,OIII,Tehran,IR,IRN,Iran,35.689167,51.313416
Imam Khomeini,IKA,OIIE,Tehran,IR,IRN,Iran,35.416111,51.152222
Vologda Airport,VGD,ULWW,Vologda,RU,RUS,Russian Federation,59.284566,39.937265
VOLOGDA RAIL STN,ВГЖ,,Vologda,RU,RUS,Russian Federation,59.216605,39.906518
Innisfail,IFL,YIFL,Innisfail,AU,AUS,Australia,-17.55908,146.01123
АППЕР БАКС,UKT,,"Quakertown, Pennsylvania",US,USA,United States of America,40.43598,-75.37958
Mocimboa Da Praia,MZB,FQMP,Mocimboa Praia,MZ,MOZ,Mozambique,-11.361789,40.354875
Cut Bank Muni,CTB,KCTB,"Cut Bank, Montana",US,USA,United States of America,48.608353,-112.376144
Maria Dolores,LSQ,SCGE,Los Angeles,CL,CHL,Chili,-37.401731,-72.425444
Lashio,LSH,VYLS,Lashio,MM,MMR,Myanmar,22.977881,97.752183
Russian Mission Airport,RSH,PARS,"Russian Mission, Alaska",US,USA,United States of America,61.775,-161.319444
Mazar I Sharif,MZR,OAMS,Mazar I Sharif,AF,AFG,Afghanistan,36.706914,67.209678
Missoula Intl,MSO,KMSO,"Missoula, Montana",US,USA,United States of America,46.916306,-114.090556
Comandante Gustavo Kraemer,BGX,SBBG,Bage,BR,BRA,Brazil,-31.390528,-54.112244
Xiangfan Airport,XFN,ZHXF,Xiangyang,CN,CHN,China,32.1506,112.291
Kerama Airport,KJP,ROKR,Kerama,JP,JPN,Japan,26.168333,127.293333
Lima Allen County Airport,AOH,KAOH,"Lima, Ohio",US,USA,United States of America,40.707478,-84.0270781
Stillwater Regional Airport,SWO,,"Stillwater, Oklahoma",US,USA,United States of America,36.161111,-97.085556
Gallivare,GEV,ESNG,Gaellivare,SE,SWE,Sweden,67.132408,20.814636
Dschang,DSC,,Dschang,CM,CMR,Cameroon,5.45,10.067
Governador Valadares Airport,GVR,SBGV,Governador Valadares,BR,BRA,Brazil,-18.8952,-41.9822
Kresty,PKV,ULOO,Pskov,RU,RUS,Russian Federation,57.797173,28.389925
Pskov Rail Station,ПСЖ,ПСЖ,Pskov,RU,RUS,Russian Federation,57.8043227,28.3619787
Bern Belp,BRN,LSZB,Bern,CH,CHE,Switzerland,46.9141,7.497153
Bern railway station,ZDJ,,Bern,CH,CHE,Switzerland,0,0
Sochi,AER,URSS,Sochi,RU,RUS,Russian Federation,43.449928,39.956589
Nakashibetsu,SHB,RJCN,Nakashibetsu,JP,JPN,Japan,43.5775,144.96
Bajhang,BJH,VNBG,Bajhang,NP,NPL,Nepal,29.53896,81.185364
Arturo Merino Benitez Intl,SCL,SCEL,Santiago,CL,CHL,Chili,-33.392975,-70.785803
Los cerrillos,ULC,,Santiago,CL,CHL,Chili,-33.5,-70.71667
Carbon County Regional-Buck Davis Field,PUC,KPUC,"Price, Utah",US,USA,United States of America,39.609722,-110.75278
Baudette Intl,BDE,KBDE,"Baudette, MN",US,USA,United States of America,48.728444,-94.612222
Mayor Buenaventura Vivas,STD,SVSO,Santo Domingo,VE,VEN,Venezuela,7.565111,-72.035125
Arutua,AXR,NTGU,Arutua,PF,PYF,French Polynesia,-15.248289,-146.616708
Buckeye Municipal Airport,BXK,KBXK,"Buckeye, Arizona",US,USA,United States of America,33.420417,-112.68618
Fort Jefferson,RBN,,"Fort Jefferson, Florida",US,USA,United States of America,24.61667,-82.86667
Bandar Abbass Intl,BND,OIKB,Bandar Abbas,IR,IRN,Iran,27.218317,56.37785
ISLES OF SCILLY,ISC,,Isles Of Scilly,GB,GBR,Great Britain (United Kingdom),49.919,-6.3075
Tresco Heliport,TSO,EGHT,Isles Of Scilly,GB,GBR,Great Britain (United Kingdom),49.945556,-6.331389
Penticton,YYF,CYYF,Penticton,CA,CAN,Canada,49.463056,-119.602222
Ji-Paraná Airport,JPR,SWJI,Ji Parana,BR,BRA,Brazil,-10.8708,-61.8465
Lehigh Valley Intl,ABE,KABE,"Allentown, PA",US,USA,United States of America,40.652083,-75.440806
Chokurdakh Airport,CKH,UESO,Chokurdah,RU,RUS,Russian Federation,70.6231,147.902
Regional Airport,SVH,KSVH,"Statesville, NC",US,USA,United States of America,35.7649958,-80.9538958
Fitzroy Crossing Airport,FIZ,YFTZ,Fitzroy Crossing,AU,AUS,Australia,-18.178,125.591
La Chinita Intl,MAR,SVMC,Maracaibo,VE,VEN,Venezuela,10.558208,-71.727856
Kauhava,KAU,EFKA,Kauhava,FI,FIN,Finland,63.127078,23.051442
Nain Airport,YDP,CYDP,Nain,CA,CAN,Canada,56.5492,-61.6803
Tuntutuliak Airport,WTL,,"Tuntutuliak, Alaska",US,USA,United States of America,60.335278,-162.666944
Parkes Airport,PKE,YPKS,Parkes,AU,AUS,Australia,-33.1314,148.239
Klagenfurt,KLU,LOWK,Klagenfurt,AT,AUT,Austria,46.642514,14.337739
Klagenfurt,KGV,,Klagenfurt,AT,AUT,Austria,46.615833,14.313333
Putao,PBU,VYPT,Putao,MM,MMR,Myanmar,27.329922,97.426269
Harris County Airport,PIM,KPIM,"Pine Mountain, Georgia",US,USA,United States of America,32.8406944,-84.8824444
Addison,ADS,KADS,"Dallas, Texas",US,USA,United States of America,32.9685594,-96.8364478
Dallas Love Fld,DAL,KDAL,"Dallas, Texas",US,USA,United States of America,32.847111,-96.851778
Dallas Fort Worth Intl,DFW,KDFW,"Dallas, Texas",US,USA,United States of America,32.896828,-97.037997
Dallas north,DNE,,"Dallas, Texas",US,USA,United States of America,0,0
Kerrville Municipal Airport,ERV,KERV,"Kerrville, Texas",US,USA,United States of America,29.9766667,-99.0854722
Elliot lake,YEL,,Elliot Lake,CA,CAN,Canada,46.35139,-82.56139
Segrate,SWK,,Milan,IT,ITA,Italy,0,0
Malpensa,MXP,LIMC,Milan,IT,ITA,Italy,45.630606,8.728111
Linate,LIN,LIML,Milan,IT,ITA,Italy,45.445103,9.276739
Bergamo Orio Al Serio,BGY,LIME,Milan,IT,ITA,Italy,45.673889,9.704166
Parma,PMF,LIMP,Milan,IT,ITA,Italy,44.824483,10.296367
Centrale Railway Station,XIK,,Milan,IT,ITA,Italy,45.4858674,9.2041666
Porta Garibaldi Stn,IPR,,Milan,IT,ITA,Italy,0,0
Rogoredo Railway Stn,IMR,,Milan,IT,ITA,Italy,45.433611,9.239167
Bellary,BEP,VOBI,Bellary,IN,IND,India,15.162783,76.882775
Southdowns,KIW,FLSO,Kitwe,ZM,ZMB,Zambia,-12.900469,28.149858
Pamplona,PNA,LEPP,Pamplona,ES,ESP,Spain,42.770039,-1.646331
Pamplona railway station,EEP,,Pamplona,ES,ESP,Spain,42.82498,-1.66145
Inongo Airport,INO,FZBA,Inongo,CD,COD,"Congo, Democratic Republic of the",-1.94722,18.2858
Samsun,SSX,,Samsun,TR,TUR,Turkey,41.1641,36.1814
Samsun-Çarşamba Airport,SZF,LTFH,Samsun,TR,TUR,Turkey,41.2545,36.5671
Moulay Ali Cherif,ERH,GMFK,Errachidia,MA,MAR,Marocco,31.9475,-4.398333
Laage,RLG,ETNL,Rostock,DE,DEU,Germany,53.918167,12.278333
Kipnuk Airport,KPN,PAKI,"Kipnuk, Alaska",US,USA,United States of America,59.933056,-164.030556
Kaikoura,KBZ,NZKI,Kaikoura,NZ,NZL,New Zealand,-42.416668,173.68333
Bari,BRI,LIBD,Bari,IT,ITA,Italy,41.138856,16.760594
Wotho Island Airport,WTO,,Wotho Island,MH,MHL,Marshall Islands,10.1733,166.003
Mechanics bay,MHB,,Auckland,NZ,NZL,New Zealand,0,0
Auckland Intl,AKL,NZAA,Auckland,NZ,NZL,New Zealand,-37.008056,174.791667
Salt Cay Airport,SLX,MBSY,Salt Cay,TC,TCA,Turks and Caicos Islands,21.333,-71.2
Tottori,TTJ,RJOR,Tottori,JP,JPN,Japan,35.530069,134.166553
Doha Intl,DOH,OTHH,Doha,QA,QAT,Qatar,25.261153,51.61377
Doha Free Zone Airport,XOZ,,Doha,QA,QAT,Qatar,24.8333,50.9166
Al Udeid AB,XJD,OTBH,Doha,QA,QAT,Qatar,25.1174,51.3228
Doha International Airport(OLD),DIA,OTBD,Doha,QA,QAT,Qatar,25.261111,51.565
Eielson Afb,EIL,PAEI,"Fairbanks, Alaska",US,USA,United States of America,64.665667,-147.1015
Ladd Aaf,FBK,PAFB,"Fairbanks, Alaska",US,USA,United States of America,64.8375,-147.614444
Fairbanks Intl,FAI,PAFA,"Fairbanks, Alaska",US,USA,United States of America,64.815114,-147.856267
Mili Island Airport,MIJ,MLIP,Mili Island,MH,MHL,Marshall Islands,6.08333,171.733
Aomori,AOJ,RJSA,Aomori,JP,JPN,Japan,40.734722,140.690833
Reno Tahoe Intl,RNO,KRNO,"Reno, NV",US,USA,United States of America,39.499108,-119.768108
Weihai Airport,WEH,ZSWH,Weihai,CN,CHN,China,37.1871,122.229
Yichang Airport,YIH,ZHYC,Yichang,CN,CHN,China,30.671,111.441
Campo Grande,CGR,SBCG,Campo Grande,BR,BRA,Brazil,-20.468667,-54.6725
San miguel,NMG,,San Miguel,PA,PAN,Panama,0,0
Mandabe,WMD,,Mandabe,MG,MDG,Madagascar,-21.033,44.95
Bilbao,BIO,LEBB,Bilbao,ES,ESP,Spain,43.301097,-2.910608
Abando railway station,YJI,,Bilbao,ES,ESP,Spain,43.261389,-2.927778
BILBAO BUS STATION,BFB,,Bilbao,ES,ESP,Spain,43.26112,-2.94908
Rijeka,RJK,LDRI,Rijeka,HR,HRV,Croatia,45.216889,14.570267
Prospect Creek Airport,PPC,PAPR,"Prospect Creek, Alaska",US,USA,United States of America,66.814167,-150.643611
Montbeugny,XMU,LFHY,Moulin Sur Allier,FR,FRA,France,46.534581,3.423725
Mehamn,MEH,ENMR,Mehamn,NO,NOR,Norway,71.029722,27.826667
Fort Smith,YSM,CYSM,Fort Smith,CA,CAN,Canada,60.020278,-111.961944
Saint Catherine,CLY,LFKC,Calvi,FR,FRA,France,42.530753,8.793189
Solwezi Airport,SLI,FLSW,Solwezi,ZM,ZMB,Zambia,-12.1737,26.3651
Eastern WV Regional Airport,MRB,KMRB,"Martinsburg, West Virginia",US,USA,United States of America,39.2407,-77.591
Purude University Airport,LAF,,"Lafayette, Indiana",US,USA,United States of America,40.4123056,-86.9368889
Gillam Airport,YGX,CYGX,Gillam,CA,CAN,Canada,56.3575,-94.7106
Tallahassee Rgnl,TLH,KTLH,"Tallahassee, Florida",US,USA,United States of America,30.396528,-84.350333
Leguizamo,LGZ,,Leguizamo,CO,COL,Colombia,0,0
Bugulma Airport,UUA,UWKB,Bugulma,RU,RUS,Russian Federation,54.64,52.8017
Galway,GWY,EICM,Galway,IE,IRL,Ireland,53.300175,-8.941592
Santa Elena Airport,SNV,,Santa Elena,VE,VEN,Venezuela,4.554722,-61.144922
Araxa Airport,AAX,SBAX,Araxa,BR,BRA,Brazil,-19.563056,-46.960278
Barking Sands Pmrf,BKH,PHBK,"Kekaha, Hawaii",US,USA,United States of America,22.022833,-159.785
Yamagata,GAJ,RJSC,Yamagata,JP,JPN,Japan,38.411894,140.371331
Newcastle,NCS,FANC,Newcastle,ZA,ZAF,South Africa,-27.770586,29.976894
Milford Sound Airport,MFN,NZMF,Milford Sound,NZ,NZL,New Zealand,-44.67333,167.92333
Imsik,BXN,LTBV,Bodrum,TR,TUR,Turkey,37.140144,27.669717
Bodrum - Milas,BJV,LTFE,Bodrum,TR,TUR,Turkey,37.249,27.667
Dane Co Rgnl Truax Fld,MSN,KMSN,"Madison, WI",US,USA,United States of America,43.139858,-89.337514
Selebi Phikwe,PKW,FBSP,Selebi Phikwe,BW,BWA,Botswana,-22.05835,27.828767
Bubung,LUW,WAMW,Luwuk,ID,IDN,Indonesia,-1.038919,122.771906
Danville,DNV,,"Danville, Illinois",US,USA,United States of America,40.1992,-87.5953
Lake Manyara,LKY,HTLM,Lake Manyara,TZ,TZA,Tanzania,-3.376306,35.818278
Ciudad Constitución Airport,CUA,MMDA,Ciudad Constitucion,MX,MEX,Mexico,25.0538,-111.615
Bamberg BF,BAM,BAMB,"Battle Mountain, Nevada",US,USA,United States of America,49.911,10.9
Ambanja Airport,IVA,FMNJ,Ambanja,MG,MDG,Madagascar,-13.65,48.467
Kubin Airport,KUG,YKUB,Kubin Island,AU,AUS,Australia,-10.225,142.218
Mannheim Railway,ZMA,,Mansfield,GB,GBR,Great Britain (United Kingdom),49.479633,8.469858
Tirupati,TIR,VOTP,Tirupati,IN,IND,India,13.632492,79.543256
Edinburgh,EDI,EGPH,Edinburgh,GB,GBR,Great Britain (United Kingdom),55.95,-3.3725
Edinburgh Waverly Station,ZXE,,Edinburgh,GB,GBR,Great Britain (United Kingdom),55.952,-3.189
Port hawkesbury,YPS,,Port Hawkesbury,CA,CAN,Canada,45.65667,-61.36806
Maupiti,MAU,NTTP,Maupiti,PF,PYF,French Polynesia,-16.426486,-152.243669
Shute Harbour,JHQ,YSHR,Shute Harbour,AU,AUS,Australia,-20.278299,148.757004
Kotlik Airport,KOT,PFKO,"Kotlik, Alaska",US,USA,United States of America,63.030556,-163.532778
Telegraph creek,YTX,,Telegraph Creek,CA,CAN,Canada,0,0
St. Lewis (Fox Harbour) Airport,YFX,CCK4,Fox Harbour,CA,CAN,Canada,52.3728,-55.6739
Val De Loire,TUF,LFOT,Tours,FR,FRA,France,47.432222,0.727606
Saint-Pierre-des-Corps,XSH,,Tours,FR,FRA,France,47.385626,0.723347
Nuku Airport,UKU,,Nuku,PG,PNG,Papua New Guinea,-3.667,142.483
Salina Cruz Naval Air Station,SCX,MM57,Salina Cruz,MX,MEX,Mexico,16.2126,-95.2016
Baco Airport,BCO,HABC,Jinka,ET,ETH,Ethiopia,5.78287,36.562
Mackay,MKY,YBMK,Mackay,AU,AUS,Australia,-21.171667,149.179722
Ibiza,IBZ,LEIB,Ibiza,ES,ESP,Spain,38.872858,1.373117
Loen,LOF,,Loen,MH,MHL,Marshall Islands,0,0
Leirin,VDB,ENFG,Fagernes,NO,NOR,Norway,61.015556,9.288056
Rio Grande,RGA,SAWE,Rio Grande,AR,ARG,Argentina,-53.777667,-67.749389
Matari,IRP,FZJH,Isiro,CD,COD,"Congo, Democratic Republic of the",2.827606,27.588253
Balkhash Airport,BXH,,Balkhash,KZ,KAZ,Kazakhstan,46.8933,75.005
Mata'aho Airport,NFO,NFTO,Niuafo Ou,TO,TON,Tonga,-15.5708,-175.633
Soalala Airport,DWB,FMNO,Soalala,MG,MDG,Madagascar,-16.083,45.367
Huslia Airport,HSL,PAHL,"Huslia, Alaska",US,USA,United States of America,65.697778,-156.351389
Puerto Princesa,PPS,RPVP,Puerto Princesa,PH,PHL,Philippines,9.742119,118.758731
Heide-Büsum Airport,HEI,EDXB,Heide Buesum,DE,DEU,Germany,54.1533,8.90167
Hauptbahnhof,BNJ,,Cologne,DE,DEU,Germany,50.731944,7.096944
Cologne Railway,QKL,,Cologne,DE,DEU,Germany,50.9425,6.958056
Koln Bonn,CGN,EDDK,Cologne,DE,DEU,Germany,50.865917,7.142744
MESSE DEUTZ RAIL STN,QKU,,Cologne,DE,DEU,Germany,0,0
Bonn Thomastr. Bus Stn,QBB,,Cologne,DE,DEU,Germany,0,0
Aro,MOL,ENML,Molde,NO,NOR,Norway,62.744722,7.2625
Kimberley,KIM,FAKM,Kimberley,ZA,ZAF,South Africa,-28.802834,24.765167
Sheghnan,SGA,,Sheghnan,AF,AFG,Afghanistan,37.567,71.5
Afyon,AFY,LTAH,Afyon,TR,TUR,Turkey,38.726425,30.601114
Samburu South Airport,UAS,HKSB,Samburu,KE,KEN,Kenya,0.530583,37.5342
St Lucie County International Airport,FRP,KFPR,"Fresh Water Bay, Alaska",US,USA,United States of America,27.497472,-80.372638
Lelystad Airport,LEY,,Lelystad,NL,NLD,Netherlands (Holland),52.4603,5.52722
General leite de Castro Airport,RVD,SWLC,Rio Verde,BR,BRA,Brazil,-17.790278,-50.918333
Fond Du Lac County Airport,FLD,KFLD,"Fond Du Lac, Wisconsin",US,USA,United States of America,43.7711667,-88.4884167
Armstrong,YYW,CYYW,Armstrong,CA,CAN,Canada,50.290279,-88.909721
Rondonopolis Airport,ROO,SWRD,Rondonopolis,BR,BRA,Brazil,-16.466667,-54.633333
Hoybuktmoen,KKN,ENKR,Kirkenes,NO,NOR,Norway,69.725781,29.891295
Uvol,UVO,,Uvol,PG,PNG,Papua New Guinea,0,0
City Of Colorado Springs Muni,COS,KCOS,"Colorado Springs, Colorado",US,USA,United States of America,38.805805,-104.700778
Butts Aaf,FCS,KFCS,"Colorado Springs, Colorado",US,USA,United States of America,38.678394,-104.756581
Vohimarina,VOH,FMNV,Vohemar,MG,MDG,Madagascar,-13.375834,50.002777
Diyarbakir,DIY,LTCC,Diyarbakir,TR,TUR,Turkey,37.893897,40.201019
Sule,ULE,,Sule,PG,PNG,Papua New Guinea,-4.97472,151.297
Teixeira de Freitas,TXF,,Teixeira Freitas,BR,BRA,Brazil,-17.524167,-39.669722
Emmonak Airport,EMK,PAEM,"Emmonak, Alaska",US,USA,United States of America,62.786111,-164.490833
Pevek,PWE,UHMP,Pevek,RU,RUS,Russian Federation,69.783283,170.597006
Ambodedjo,MZI,GAMB,Mopti,ML,MLI,Mali,14.512803,-4.079561
Mountain Airport,MWP,,Mountain,NP,NPL,Nepal,28,85.333
Hatay Airport,HTY,LTDA,Hatay,TR,TUR,Turkey,36.362778,36.282222
Eugenio Maria De Hostos,MAZ,TJMZ,Mayaguez,PR,PRI,Puerto Rico,18.255694,-67.148472
Lagos de moreno,LOM,,Lagos De Moreno,MX,MEX,Mexico,0,0
Maota Airport,MXS,NSMA,Maota Savaii Is,WS,WSM,Samoa,-13.733,-172.3
Okushiri,OIR,RJEO,Okushiri,JP,JPN,Japan,42.071667,139.432911
Tiga Airport,TGJ,NWWA,Tiga,NC,NCL,New Caledonia,-21.0961,167.804
Brussels South,CRL,EBCI,Brussels,BE,BEL,Belgium,50.459197,4.453817
Brussels Natl,BRU,EBBR,Brussels,BE,BEL,Belgium,50.901389,4.484444
Brussels Gare du Midi,ZYR,,Brussels,BE,BEL,Belgium,50.8,4.4
Thumrait,TTH,OOTH,Thumrait,OM,OMN,Oman,17.666,54.024612
Sabto bus station,DMS,,Dammam,SA,SAU,Saudi Arabia,0,0
King Fahd Intl,DMM,OEDF,Dammam,SA,SAU,Saudi Arabia,26.471161,49.79789
Tivat,TIV,LYTV,Tivat,ME,MNE,Montenegro,42.404664,18.723286
Tokunoshima,TKN,RJKN,Tokunoshima,JP,JPN,Japan,27.836381,128.881253
South andros,TZN,,South Andros,BS,BHS,Bahamas,0,0
Buol,UOL,,Buol,ID,IDN,Indonesia,1.15905,121.428
Pathankot,IXP,VIPK,Pathankot,IN,IND,India,32.233778,75.634628
Iasi,IAS,LRIA,Iasi,RO,ROU,Romania,47.178492,27.620631
Rendani,MKW,WASR,Manokwari,ID,IDN,Indonesia,-0.891833,134.049183
Kunsan Air Base,KUV,RKJK,Gunsan,KR,KOR,Korea (South),35.903756,126.615906
Mountain Home Afb,MUO,KMUO,"Mountain Home, Idaho",US,USA,United States of America,43.043603,-115.872431
Daru Airport,DAU,AYDU,Daru,PG,PNG,Papua New Guinea,-9.08676,143.208
Tsaratanana Airport,TTS,FMNT,Tsaratanana,MG,MDG,Madagascar,-16.75,47.617
James M Cox Dayton Intl,DAY,KDAY,"Dayton, Ohio",US,USA,United States of America,39.902375,-84.219375
Wright Patterson Afb,FFO,KFFO,"Dayton, Ohio",US,USA,United States of America,39.826111,-84.048332
Rhinelander Oneida County Airport,RHI,KRHI,"Rhinelander, WI",US,USA,United States of America,45.6312,-89.4675
Marsa Alam Intl,RMF,HEMA,Marsa Alam,EG,EGY,Egypt,25.557111,34.583711
Arad,ARW,LRAR,Arad,RO,ROU,Romania,46.17655,21.262022
Grottaglie,TAR,LIBG,Taranto,IT,ITA,Italy,40.517514,17.403212
Goulburn Airport,GUL,YGLB,Goulburn,AU,AUS,Australia,-34.8103,149.726
Shimojishima,SHI,RORS,Shimojishima,JP,JPN,Japan,24.826667,125.144722
Page Municipal Airport,PGA,KPGA,"Page, Arizona",US,USA,United States of America,36.9261,-111.4483
Erie Intl Tom Ridge Fld,ERI,KERI,"Erie, PA",US,USA,United States of America,42.082022,-80.176217
Tynda,TYD,UHBW,Tynda,RU,RUS,Russian Federation,55.2843,124.7825
Ängelholm-Helsingborg Airport,AGH,ESTA,Helsingborg,SE,SWE,Sweden,56.2961,12.8471
Helsingborg Cruise Port,JHE,,Helsingborg,SE,SWE,Sweden,56.0419,12.6912
Quincy Regional Baldwin Field,UIN,KUIN,"Quincy, IL",US,USA,United States of America,39.9427,-91.1946
Sultan Mahmud,TGG,WMKN,Kuala Terengganu,MY,MYS,Malaysia,5.382639,103.10336
EL Real Airport,ELE,,El Real,PA,PAN,Panama,8.133,-77.7
Gasmata Island Airport,GMI,,Gasmata Island,PG,PNG,Papua New Guinea,-6.27111,150.331
Juanda,SUB,WARR,Surabaya,ID,IDN,Indonesia,-7.379831,112.786858
DHOHO INTERNATIONAL,DHX,,Surabaya,ID,IDN,Indonesia,-7.761672,111.951521
Saint Barthelemy,SBH,TFFJ,Saint Barthelemy,GP,GLP,Guadeloupe,17.9023,-62.8324
Munich HBF,MUQ,MUNI,Muccan,AU,AUS,Australia,48.1408,11.555
Playa De Oro Intl,ZLO,MMZO,Manzanillo,MX,MEX,Mexico,19.144778,-104.558631
Arba Minch,AMH,HAAM,Arba Mintch,ET,ETH,Ethiopia,6.039389,37.590453
Alta,ALF,ENAT,Alta,NO,NOR,Norway,69.976111,23.371667
Awaba Airport,AWB,,Awaba,PG,PNG,Papua New Guinea,-8.014,142.75
Alexander Field South Wood County Airport,ISW,KISW,"Wisconsin Rapids, Wisconsin",US,USA,United States of America,44.3606456,-89.8381412
Lawas Airport,LWY,WBGW,Lawas,MY,MYS,Malaysia,4.84917,115.408
Tweed-New Haven Airport,HVN,KHVN,"New Haven, CT",US,USA,United States of America,41.26375,-72.886806
New Haven Rail Station,ZVE,,"New Haven, CT",US,USA,United States of America,41.298669,-72.925992
Pemba,POL,FQPB,Pemba,MZ,MOZ,Mozambique,-12.986753,40.522492
Abraham Lincoln Capital,SPI,KSPI,"Springfield, Illinois",US,USA,United States of America,39.8441,-89.677889
Stephenville,YJT,CYJT,Stephenville,CA,CAN,Canada,48.544167,-58.549999
Kahramanmaras Airport,KCM,LTCN,Kahramanmaras,TR,TUR,Turkey,37.539,36.9534
Lake Charles Rgnl,LCH,KLCH,"Lake Charles, Louisiana",US,USA,United States of America,30.126112,-93.223335
Kasigluk Airport,KUK,PFKA,"Kasigluk, Alaska",US,USA,United States of America,60.873333,-162.524444
Dalhart Muni,DHT,KDHT,"Dalhart, Texas",US,USA,United States of America,36.022586,-102.547278
Ogoki Post Airport,YOG,CNT3,Ogoki,CA,CAN,Canada,51.6586,-85.9017
Hazleton Municipal,HZL,KHZL,"Hazleton, Pennsylvania",US,USA,United States of America,40.989167,-76.0025
Kiruna,KRN,ESNQ,Kiruna,SE,SWE,Sweden,67.821986,20.336764
Agatti,AGX,VOAT,Agatti Island,IN,IND,India,10.823656,72.176042
Ekuk,KKU,,"Ekuk, Alaska",US,USA,United States of America,58.81168,-158.56106
Pokhara,PKR,VNPK,Pokhara,NP,NPL,Nepal,28.200881,83.982056
Tri Cities Airport,PSC,PSC,"Pasco, Washington",US,USA,United States of America,46.2647,-119.119
Toliara,TLE,FMST,Tulear,MG,MDG,Madagascar,-23.383369,43.728453
Mc Kellar Sipes Rgnl,MKL,KMKL,"Jackson, Tennessee",US,USA,United States of America,35.599889,-88.915611
Hasvik,HAA,ENHK,Hasvik,NO,NOR,Norway,70.486675,22.139744
Kyoto,UKY,,Kyoto,JP,JPN,Japan,35.016667,135.766667
Principe,PCP,FPPR,Principe,ST,STP,Sao Tomea and Principe,1.662936,7.411742
Kiunga Airport,UNG,AYKI,Kiunga,PG,PNG,Papua New Guinea,-6.12571,141.282
Batman,BAL,LTCJ,Batman,TR,TUR,Turkey,37.928969,41.116583
Takamatsu,TAK,RJOT,Takamatsu,JP,JPN,Japan,34.214167,134.015556
Guam Intl,GUM,PGUM,Guam,GU,GUM,Guam,13.48345,144.795983
Andersen Afb,UAM,PGUA,Guam,GU,GUM,Guam,13.583953,144.930025
Gethsemani,ZGS,,Gethsemani,CA,CAN,Canada,50.2573,-60.66925
Breves Airport,BVS,SNVS,Breves,BR,BRA,Brazil,-1.681944,-50.48
Bautzen,BBJ,EDAB,Bitburg,DE,DEU,Germany,51.193531,14.519747
Hodeidah Intl,HOD,OYHD,Hodeidah,YE,YEM,Yemen,14.753,42.976336
Siauliai Intl,SQQ,EYSA,Siauliai,LT,LTU,Lithuania,55.893886,23.394975
Kolda,KDA,,Kolda,SN,SEN,Senegal,12.88333,-14.96667
Vallee De Seine,URO,LFOP,Rouen,FR,FRA,France,49.384172,1.1748
Cap Manuel Nino Intl,CHX,MPCH,Changuinola,PA,PAN,Panama,9.458636,-82.516806
Vijayawada,VGA,VOBZ,Vijayawada,IN,IND,India,16.530433,80.796847
El Plumerillo,MDZ,SAME,Mendoza,AR,ARG,Argentina,-32.831717,-68.792856
Sogndal Airport,SOG,ENSG,Sogndal,NO,NOR,Norway,61.1561,7.13778
Shahre Kord Airport,CQD,OIFS,Shahre-Kord,IR,IRN,Iran,32.2972,50.8422
Round Lake (Weagamow Lake) Airport,ZRJ,CZRJ,Round Lake,CA,CAN,Canada,52.9436,-91.3128
Funafuti International,FUN,NGFU,Funafuti Atol,TV,TUV,Tuvalu,-8.525,179.196389
Macapa,MCP,SBMQ,Macapa,BR,BRA,Brazil,0.050664,-51.072178
Sorocaba Airport,SOD,SDCO,Sorocaba,BR,BRA,Brazil,-23.478,-47.49
Moomba,MOO,YOOM,Moomba,AU,AUS,Australia,-28.1,140.2
Hervey Bay Airport,HVB,YHBA,Hervey Bay,AU,AUS,Australia,-25.318889,152.880278
Burlington Intl,BTV,KBTV,"Burlington, Vermont",US,USA,United States of America,44.471861,-73.153278
Linga linga,LGN,,Linga Linga,PG,PNG,Papua New Guinea,0,0
Nouakchott,NKC,GQNN,Nouakchott,MR,MRT,Mauritania,18.097856,-15.947956
Perryville Airport,KPV,PAPE,"Perryville, Alaska",US,USA,United States of America,55.906667,-159.160833
Huangyan Luqiao Airport,HYN,ZSLQ,Taizhou (Zhejiang),CN,CHN,China,28.5622,121.429
Staroselye Airport,RYB,UUBK,Rybinsk,RU,RUS,Russian Federation,58.1042,38.9294
Belfast Intl,BFS,EGAA,Belfast,GB,GBR,Great Britain (United Kingdom),54.6575,-6.215833
Belfast City,BHD,EGAC,Belfast,GB,GBR,Great Britain (United Kingdom),54.618056,-5.8725
King Khaled Intl,RUH,OERK,Riyadh,SA,SAU,Saudi Arabia,24.95764,46.698776
Southwest Oregon Regional Airport,OTH,KOTH,"North Bend, Oregon",US,USA,United States of America,43.4171,-124.246
Kalkgurung Airport,KFG,YKKG,Kalkurung,AU,AUS,Australia,-17.4319,130.808
Edwards Afb,EDW,KEDW,"Edwards Afb, California",US,USA,United States of America,34.905417,-117.883739
Billings Logan International Airport,BIL,KBIL,"Billings, Montana",US,USA,United States of America,45.80921,-108.537654
Ugolny Airport,DYR,UHMA,Anadyr,RU,RUS,Russian Federation,64.73495,177.741483
Sibu,SBW,WBGS,Sibu,MY,MYS,Malaysia,2.261603,111.985322
Taplejung,TPJ,VNTJ,Taplejung,NP,NPL,Nepal,27.35,84.667
Aeroporto Blumenau,BNU,SSBL,Blumenau,BR,BRA,Brazil,-26.834239,-49.091696
Thaba nchu,TCU,,Thaba Nchu,ZA,ZAF,South Africa,-29.3178,26.8228
Tehuacan,TCN,MMHC,Tehuacan,MX,MEX,Mexico,18.497189,-97.419942
Yazd Shahid Sadooghi,AZD,OIYY,Yazd,IR,IRN,Iran,31.904908,54.276503
Champaign,CMI,KCMI,"Champaign, Illinois",US,USA,United States of America,40.03925,-88.278056
Aristotelis,KSO,LGKA,Kastoria,GR,GRC,Greece,40.446294,21.282186
Wollaston Lake Airport,ZWL,CZWL,Wollaston Lake,CA,CAN,Canada,58.1069,-103.172
Tucupita,TUV,SVTC,Tucupita,VE,VEN,Venezuela,9.088994,-62.094175
Kuri,KUQ,,Kuri,PG,PNG,Papua New Guinea,0,0
Luqa,MLA,LMML,Malta,MT,MLT,Malta,35.857497,14.4775
Circle City Airport,IRC,PACR,"Circle, Alaska",US,USA,United States of America,65.827778,-144.076111
Grantley Adams Intl,BGI,TBPB,Bridgetown,BB,BRB,Barbados,13.074603,-59.492456
Gualeguaychu,GHU,SAAG,Gualeguaychu,AR,ARG,Argentina,-33.010278,-58.613056
Ipota Airport,IPA,NVVI,Ipota,VU,VUT,Vanuatu,-18.8783,169.308
Coimbatore,CJB,VOCB,Coimbatore,IN,IND,India,11.030031,77.043383
Entzheim,SXB,LFST,Strasbourg,FR,FRA,France,48.538319,7.628233
Strasbourg,XER,,Strasbourg,FR,FRA,France,0,0
Gare de Strasbourg,XWG,,Strasbourg,FR,FRA,France,48.585068,7.734547
Zurich hbf railway station,ZLP,,Zuerich,CH,CHE,Switzerland,0,0
Zurich,ZRH,LSZH,Zuerich,CH,CHE,Switzerland,47.464722,8.549167
GOETTINGEN,ZEU,,Goettingen,DE,DEU,Germany,51.536631,9.926776
Sakon Nakhon,SNO,VTUI,Sakon Nakhon,TH,THA,Thailand,17.195142,104.118625
Aeropuerto Capitan Fuentes Martinez,WPR,,Porvenir,CL,CHL,Chili,-53.2537,-70.319228
Caldwell Essex County Airport,CDW,KCDW,"Caldwell, New Jersey",US,USA,United States of America,40.8752222,-74.2813611
Liege,LGG,EBLG,Liege,BE,BEL,Belgium,50.637417,5.443222
Liege-Guillemins Railway Station,XHN,,Liege,BE,BEL,Belgium,50.6333,5.56667
Barisal Airport,BZL,VGBR,Barisal,BD,BGD,Bangladesh,22.801,90.3012
Grand Marais Cook County Airport,GRM,KCKC,"Grand Marais, Minnesota",US,USA,United States of America,47.8383333,-90.3829444
Changle,FOC,ZSFZ,Fuzhou,CN,CHN,China,25.935064,119.663272
Qiemo Airport,IQM,ZWCM,Qiemo,CN,CHN,China,38.1494,85.5328
Kungsangen,NRK,ESSP,Norrkoeping,SE,SWE,Sweden,58.586253,16.250622
NORRKOPING,XYK,,Norrkoeping,SE,SWE,Sweden,58.577157,16.245069
Orinduik Airport,ORJ,SYOR,Orinduik,GY,GUY,Guyana,4.7,-60.016667
Nausori Intl,SUV,NFNA,Suva,FJ,FJI,Fiji,-18.043267,178.559228
Maripasoula Airport,MPY,SOOA,Maripasoula,GF,GUF,French Guyana,3.6575,-54.037222
Qaanaaq Airport,NAQ,BGQQ,Qaanaaq,GL,GRL,Greenland,77.4886,-69.3887
Hoonah Airport,HNH,PAOH,"Hoonah, Alaska",US,USA,United States of America,58.096111,-135.409722
Kurumoch,KUF,,Samara,RU,RUS,Russian Federation,53.5,50.15
Tunoshna,IAR,UUDL,Yaroslavl,RU,RUS,Russian Federation,57.56066668,40.15736945
Yaroslavl Rail Stn,,,Yaroslavl,RU,RUS,Russian Federation,57.625583,39.835278
Shubuling Airport,LYI,ZSLY,Linyi,CN,CHN,China,35.0461,118.412
Egilsstadir,EGS,BIEG,Egilsstadir,IS,ISL,Iceland,65.283333,-14.401389
Sligo,SXL,EISG,Sligo,IE,IRL,Ireland,54.280214,-8.599206
Baguio,BAG,RPUB,Baguio,PH,PHL,Philippines,16.375103,120.619636
Salvaza,CCF,LFMK,Carcassonne,FR,FRA,France,43.215978,2.306317
Portland Hillsboro,HIO,KHIO,"Hillsboro, Oregon",US,USA,United States of America,45.540394,-122.949825
Hong Kong Intl,HKG,VHHH,Hong Kong,HK,HKG,Hong Kong,22.308919,113.914603
HONG KONG ZHUHAI MACAO,HKM,,Hong Kong,HK,HKG,Hong Kong,22.283056,113.780556
SAN SEBASTIAN,FDD,,San Sebastian,ES,ESP,Spain,43.301117,-1.980038
San Sebastian,EAS,LESO,San Sebastian,ES,ESP,Spain,43.356519,-1.790611
Parsabade Moghan Airport,PFQ,OITP,Parsabad,IR,IRN,Iran,39.603606,47.8815
Davis inlet,YDI,,Davis Inlet,CA,CAN,Canada,0,0
Furstenfeldbruck,FEL,ETSF,Fuerstenfeldbruck,DE,DEU,Germany,48.205667,11.267
Rocky Mount Wilson Regional Airport,RWI,KRWI,"Rocky Mount, NC",US,USA,United States of America,35.8563,-77.8919
Cootamundra,CMD,,Cootamundra,AU,AUS,Australia,-34.6239,148.028
Tsushima,TSJ,RJDT,Tsushima,JP,JPN,Japan,34.284889,129.33055
Xi\\'An Xiguan,SIA,ZLSN,Xi An Xiguan,CN,CHN,China,34.3767,109.12
Grand Junction Regional,GJT,KGJT,"Grand Junction, Colorado",US,USA,United States of America,39.122413,-108.526735
Ulaangom Airport,ULO,ZMUG,Ulaangom,MN,MNG,Mongolia,49.973333,92.079722
Imphal,IMF,VEIM,Imphal,IN,IND,India,24.75995,93.896697
Qala-nau,LQN,,Qala Nau,AF,AFG,Afghanistan,34.985,63.1178
Port alexander,PTD,,"Port Alexander, Alaska",US,USA,United States of America,0,0
Sindal Airport,CNL,EKSN,Sindal,DK,DNK,Denmark,57.503525,10.229372
Meadow Lake,YLJ,CYLJ,Meadow Lake,CA,CAN,Canada,54.125278,-108.522778
Portoroz,POW,LJPZ,Portoroz,SI,SVN,Slovenia,45.473353,13.614978
Dera Ismael Khan Airport,DSK,OPDI,Dera Ismail Khan,PK,PAK,Pakistan,31.909422,70.896639
Mbandaka,MDK,FZEA,Mbandaka,CD,COD,"Congo, Democratic Republic of the",0.0226,18.288744
Lviv Intl,LWO,UKLL,Lvov,UA,UKR,Ukraine,49.8125,23.956111
Northern Maine Rgnl At Presque Isle,PQI,KPQI,"Presque Isle, Maine",US,USA,United States of America,46.688958,-68.044797
Bassel Al Assad Intl,LTK,OSLK,Latakia,SY,SYR,Syria,35.401094,35.948681
Hollis Seaplane Base,HYL,,"Hollis, Alaska",US,USA,United States of America,55.481667,-132.646111
Sannvhe,TVS,ZBSN,Tangshan,CN,CHN,China,39.717444,118.002389
Hemavan Airport,HMV,ESUT,Hemavan,SE,SWE,Sweden,65.806111,15.082778
Teraina,TNQ,,Teraina,KI,KIR,Kiribati,0,0
Sur,SUH,,Sur,OM,OMN,Oman,0,0
Agri Airport,AJI,LTCO,Agri,TR,TUR,Turkey,39.6546,43.0271
Honiara International,HIR,AGGH,Honiara,SB,SLB,Solomon Islands,-9.428,160.054789
Chisana Airport,CZN,,"Chisana, Alaska",US,USA,United States of America,62.071111,-142.048333
Qikiqtarjuaq,YVM,CYVM,Qikiqtarjuaq,CA,CAN,Canada,67.545833,-64.031389
Cuddapah,CDP,VOCP,Cuddapah,IN,IND,India,14.509961,78.772833
Williamson-Sodus Airport,SDC,KSDC,Sandcreek,GY,GUY,Guyana,43.2347904,-77.119444
Presidente Peron,NQN,SAZN,Neuquen,AR,ARG,Argentina,-38.949,-68.155711
Lifuka Island Airport,HPA,NFTL,Ha Apai,TO,TON,Tonga,-19.777,-174.341
Campo Alegre Airport,CMP,SNKE,Santana Do Aragua,BR,BRA,Brazil,-9.505,-50.625
Forquilhinha,CCM,SBCM,Criciuma,BR,BRA,Brazil,-28.725817,-49.424739
Mersa Matruh,MUH,HEMM,Mersa Matruh,EG,EGY,Egypt,31.325356,27.221689
Sola Airport,SLH,NVSC,Sola,VU,VUT,Vanuatu,-13.8517,167.537
Bayankhongor Airport,BYN,ZMBH,Bayankhongor,MN,MNG,Mongolia,46.1633,100.704
Jacksonville Nas,NIP,KNIP,"Jacksonville, Florida",US,USA,United States of America,30.235834,-81.680556
Jacksonville Intl,JAX,KJAX,"Jacksonville, Florida",US,USA,United States of America,30.494056,-81.687861
Cecil Field,VQQ,KVQQ,"Jacksonville, Florida",US,USA,United States of America,30.2187,-81.8767
Kaltag Airport,KAL,PAKV,"Kaltag, Alaska",US,USA,United States of America,64.3191,-158.741
Corpus Christi Intl,CRP,KCRP,"Corpus Christi, Texas",US,USA,United States of America,27.770361,-97.501222
Kaolack,KLC,GOOK,Kaolack,SN,SEN,Senegal,14.146881,-16.051297
Vaernes,TRD,ENVA,Trondheim,NO,NOR,Norway,63.457556,10.92425
Bonaventure Airport,YVB,CYVB,Bonaventure,CA,CAN,Canada,48.0711,-65.4603
Luzhou Airport,LZO,ZULZ,Luzhou,CN,CHN,China,28.8522,105.393
Transilvania Targu Mures,TGM,LRTM,Tirgu Mures,RO,ROU,Romania,46.467714,24.412525
Shang Yi,KNH,RCBS,Kinmen,TW,TWN,Taiwan,24.427892,118.359197
Samos,SMI,LGSM,Samos,GR,GRC,Greece,37.689999,26.911667
JAGS McCartney International Airport,GDT,MBGT,Grand Turk Is,TC,TCA,Turks and Caicos Islands,21.4445,-71.1423
Flensburg Schaferhaus,FLF,EDXF,Flensburg,DE,DEU,Germany,54.771772,9.378214
Marshfield Municipal Airport,MFI,KMFI,"Marshfield, Wisconsin",US,USA,United States of America,44.6368797,-90.1893267
St Gatien,DOL,LFRG,Deauville,FR,FRA,France,49.365339,0.154306
Boire Field Airport,ASH,KASH,"Nashua, New Hampshire",US,USA,United States of America,42.78175,-71.5147778
Treviso,TSF,LIPH,Venice,IT,ITA,Italy,45.6484,12.194422
Marco Polo di Tessera,VCE,LIPZ,Venice,IT,ITA,Italy,45.505278,12.351944
Santa Lucia Rail Stn,XVQ,,Venice,IT,ITA,Italy,0,0
Mestre Railway Station,XVY,,Venice,IT,ITA,Italy,0,0
Imperial Co,IPL,KIPL,"El Centro, CA",US,USA,United States of America,32.834219,-115.578744
El Centro Naf,NJK,KNJK,"El Centro, CA",US,USA,United States of America,32.829222,-115.671667
Durango La Plata Co,DRO,KDRO,"Durango, Colorado",US,USA,United States of America,37.151516,-107.75377
Shaktoolik Airport,SKK,PFSH,"Shaktoolik, Alaska",US,USA,United States of America,64.371111,-161.223889
Ambatomainty Airport,AMY,,Ambatomainty,MG,MDG,Madagascar,-17.1667,47.1833
Aleppo Intl,ALP,OSAP,Aleppo,SY,SYR,Syria,36.180675,37.224358
Lajes,TER,LPLA,Terceira Island,PT,PRT,Portugal,38.761842,-27.090797
Long island,HAP,,Long Island,AU,AUS,Australia,0,0
Pavlodar,PWQ,UASP,Pavlodar,KZ,KAZ,Kazakhstan,52.195,77.073889
Marshall Aaf,FRI,KFRI,"Fort Riley, Kansas",US,USA,United States of America,39.055275,-96.764453
Armor,SBK,LFRT,Saint Brieuc,FR,FRA,France,48.537777,-2.854445
Kobuk Airport,OBU,PAOB,"Kobuk, Alaska",US,USA,United States of America,66.912222,-156.897222
Chipata Airport,CIP,FLCP,Chipata,ZM,ZMB,Zambia,-13.5583,32.5872
Codela Airport,CSC,MRCA,Canas,CR,CRI,Costa Rica,10.414,-85.0917
Ust-Ilimsk,UIK,UIBS,Ust Ilimsk,RU,RUS,Russian Federation,58.135,102.566
Auki Airport,AKS,AGGA,Auki,SB,SLB,Solomon Islands,-8.70257,160.682
Gaua Island Airport,ZGU,NVSQ,Gaua,VU,VUT,Vanuatu,-14.2181,167.587
Senador Nilo Coelho,PNZ,SBPL,Petrolina,BR,BRA,Brazil,-9.362411,-40.569097
Guipavas,BES,LFRB,Brest,FR,FRA,France,48.447911,-4.418539
Canton,CIS,PCIS,Canton Island,KI,KIR,Kiribati,-2.768122,-171.710394
McMinn Co,MMI,KMMI,"Athens, Tennessee",US,USA,United States of America,35.39919,-84.56177
Lossiemouth,LMO,EGQS,Lossiemouth,GB,GBR,Great Britain (United Kingdom),57.705214,-3.339169
Lanyu,KYD,RCLY,Orchid Island,TW,TWN,Taiwan,22.028842,121.533642
Angers St Laud,QXG,,Angers,FR,FRA,France,47.464714,-0.556405
Angers-Loire Airport,ANE,LFJR,Angers,FR,FRA,France,47.5603,-0.312222
Vilankulo,VNX,FQVL,Vilanculos,MZ,MOZ,Mozambique,-22.018431,35.313297
Borkum,BMK,EDWR,Borkum,DE,DEU,Germany,53.5955,6.709167
Wadi Al Dawasir Airport,WAE,OEWD,Wadi Ad Dawasir,SA,SAU,Saudi Arabia,20.504275,45.199556
Riga Intl,RIX,EVRA,Riga,LV,LVA,Latvia,56.923611,23.971111
Cherepovets Airport,CEE,ULBC,Cherepovets,RU,RUS,Russian Federation,59.279593,38.022102
Shonai Airport,SYO,RJSY,Shonai,JP,JPN,Japan,38.812222,139.787222
Zaranj Airport,ZAJ,OAZJ,Zaranj,AF,AFG,Afghanistan,30.969167,61.866944
Koszalin - Zegrze Pomorskie Airport,OSZ,EPKO,Koszalin,PL,POL,Poland,54.041,16.266
Craig Cove Airport,CCV,NVSF,Craig Cove,VU,VUT,Vanuatu,-16.265,167.924
Chaoyang Airport,CHG,ZYCY,Chaoyang(Liaoning),CN,CHN,China,41.5381,120.435
Boone Co,HRO,KHRO,"Harrison, Arkansas",US,USA,United States of America,36.261519,-93.154728
Marcillac,RDZ,LFCR,Rodez,FR,FRA,France,44.407869,2.482672
Las Americas Intl,SDQ,MDSD,Santo Domingo,DO,DOM,Dominican Republic,18.429664,-69.668925
Dr Joaquin Balaguer International Airport,JBQ,MDJB,Santo Domingo,DO,DOM,Dominican Republic,18.5725,-69.9856
Levaldigi,CUF,LIMZ,Cuneo,IT,ITA,Italy,44.547019,7.623217
Palenque,PQM,,Palenque,MX,MEX,Mexico,17.5334,-91.9845
Provincetown Muni,PVC,KPVC,"Provincetown, Massachusetts",US,USA,United States of America,42.071945,-70.22139
Mabaruma Airport,USI,SYMB,Mabaruma,GY,GUY,Guyana,8.2,-59.783333
Camiguin Airport,CGM,RPMH,Camiguin,PH,PHL,Philippines,9.25352,124.707
Jijel,GJL,DAAV,Jijel,DZ,DZA,Algeria,36.795136,5.873608
Mosul International Airport,OSB,ORBM,"Osage Beach, Missouri",US,USA,United States of America,36.305833,43.1475
Midland Intl,MAF,KMAF,"Midland, Texas",US,USA,United States of America,31.942528,-102.201914
Forde Bringeland,FDE,,Forde,NO,NOR,Norway,61.392,5.763
Juana Azurduy De Padilla,SRE,SLSU,Sucre,BO,BOL,Bolivia,-19.007083,-65.288747
Dourados Airport,DOU,SSDO,Dourados,BR,BRA,Brazil,-22.220833,-54.805833
Elkhart Municipal,EKI,,"Elkhart, Indiana",US,USA,United States of America,41.719444,-86.003333
Nanyang Airport,NNY,ZHNY,Nanyang,CN,CHN,China,32.9808,112.615
Sauce Viejo,SFN,SAAV,Santa Fe,AR,ARG,Argentina,-31.711666,-60.811668
Kake Seaplane Base,KAE,,"Kake, Alaska",US,USA,United States of America,56.973056,-133.945556
Lewiston Maine,LEW,KLEW,"Lewiston, Maine",US,USA,United States of America,44.0484728,-70.2835075
Whatì Airport,YLE,CEM3,Wha Ti Lac La Matre,CA,CAN,Canada,63.1317,-117.246
Mojave,MHV,KMHV,"Mojave, California",US,USA,United States of America,35.059364,-118.151856
Telluride,TEX,KTEX,"Telluride, Colorado",US,USA,United States of America,37.953759,-107.90848
Eldebba,EDB,,Eldebba,SD,SDN,Sudan,18.025,30.9583
Oshawa Airport,YOO,CYOO,Oshawa,CA,CAN,Canada,43.9228,-78.895
Ramata Airport,RBV,AGRM,Ramata,SB,SLB,Solomon Islands,-8.16806,157.643
Estevan,YEN,CYEN,Estevan,CA,CAN,Canada,49.210278,-102.965833
Silver Springs Airport,SPZ,KSPZ,"Springdale, Arkansas",US,USA,United States of America,39.4030278,-119.2511944
Talhar,BDN,OPTH,Badin,PK,PAK,Pakistan,24.841519,68.838408
Edna bay,EDA,,"Edna Bay, Alaska",US,USA,United States of America,55.95002,-133.66662
Mampikony Airport,WMP,FMNP,Mampikony,MG,MDG,Madagascar,-16.049,47.622
Île d'Yeu Airport,IDY,LFEY,Ile D Yeu,FR,FRA,France,46.718611,-2.391111
Minsk 2,MSQ,UMMS,Minsk,BY,BLR,Belarus,53.882469,28.030731
Minsk 1,MHP,UMMM,Minsk,BY,BLR,Belarus,53.864472,27.539683
Nea Anchialos,VOL,LGBL,Volos,GR,GRC,Greece,39.219619,22.794339
Leite Lopes,RAO,SBRP,Ribeirao Preto,BR,BRA,Brazil,-21.134167,-47.774189
Portland Troutdale,TTD,KTTD,"Troutdale, Oregon",US,USA,United States of America,45.54937,-122.401253
Lannion,LAI,LFRO,Lannion,FR,FRA,France,48.754378,-3.471656
Astrakhan,ASF,URWA,Astrakhan,RU,RUS,Russian Federation,46.283333,48.006278
Batouri,OUR,,Batouri,CM,CMR,Cameroon,4.46667,14.36667
Vatry,XCR,LFOK,Chalons En Champagne,FR,FRA,France,48.776072,4.184492
Phalaborwa,PHW,FAPH,Phalaborwa,ZA,ZAF,South Africa,-23.937166,31.15539
Rock Springs Sweetwater County Airport,RKS,KRKS,"Rock Springs, Wyoming",US,USA,United States of America,41.5942,-109.065
Mont Joli,YYY,CYYY,Mont Joli,CA,CAN,Canada,48.608612,-68.208056
Woensdrecht,WOE,EHWO,Bergen Op Zoom,NL,NLD,Netherlands (Holland),51.449092,4.342031
Isafjordur,IFJ,BIIS,Isafjordur,IS,ISL,Iceland,66.058056,-23.135278
Dauphin Barker,YDN,CYDN,Dauphin,CA,CAN,Canada,51.100834,-100.0525
APELDOORN,QYP,,Apeldoorn,NL,NLD,Netherlands (Holland),52.212419,5.965886
Nakhon Phanom,KOP,VTUW,Nakhon Phanom,TH,THA,Thailand,17.383794,104.643022
Atambua,ABU,,Atambua,ID,IDN,Indonesia,-9.07305,124.905
McNary Field,SLE,KSLE,"Salem, Oregon",US,USA,United States of America,44.9095,-123.003
Belbek Sevastopol International Airport,UKS,UKFB,Sevastopol,RU,RUS,Russian Federation,44.691431,33.57567
In guezzam,INF,,In Guezzam,DZ,DZA,Algeria,19.56667,5.75
Wilcannia,WIO,YWCA,Wilcannia,AU,AUS,Australia,-31.51749992,143.3789978
Angel Albino Corzo,TGZ,MMTG,Tuxtla Gutierrez,MX,MEX,Mexico,16.561822,-93.026081
Yangon Intl,RGN,VYYY,Yangon,MM,MMR,Myanmar,16.907305,96.133222
Thisted,TED,EKTS,Thisted,DK,DNK,Denmark,57.0688,8.705225
New Tanegashima,TNE,RJFG,Tanegashima,JP,JPN,Japan,30.605067,130.991231
Rennell/Tingoa Airport,RNL,AGGR,Rennell,SB,SLB,Solomon Islands,-11.5339,160.063
Lakeba Island Airport,LKB,NFNK,Lakeba,FJ,FJI,Fiji,-18.1992,-178.817
Jefferson City Memorial Airport,JEF,KJEF,"Jefferson City, Missouri",US,USA,United States of America,38.5912,-92.1561
Gladwin Zettel Memorial Airport,GDW,KGDW,"Gladwin, Michigan",US,USA,United States of America,43.9705893,-84.47502
Ramstein Ab,RMS,ETAR,Ramstein,DE,DEU,Germany,49.436911,7.600283
Giyani,GIY,,Giyani,ZA,ZAF,South Africa,-23.2833,30.65
Husein Sastranegara,BDO,WICC,Bandung,ID,IDN,Indonesia,-6.900625,107.576294
Cape Town Intl,CPT,FACT,Cape Town,ZA,ZAF,South Africa,-33.964806,18.601667
Perth Scone Airport,PSL,EGPT,Perth,GB,GBR,Great Britain (United Kingdom),56.439722,-3.371389
Sambu Airport,SAX,,Sambu,PA,PAN,Panama,8.017,-78.2
Majors,GVT,KGVT,"Greenville, Texas",US,USA,United States of America,33.067839,-96.065333
Birsa Munda,IXR,VERC,Ranchi,IN,IND,India,23.31425,85.321675
Cote D'Azur,NCE,LFMN,Nice,FR,FRA,France,43.658411,7.215872
Nice ville,NВИ,,Nice,FR,FRA,France,0,0
Sampit(Hasan) Airport,SMQ,WAOS,Sampit,ID,IDN,Indonesia,-2.499194,112.974992
El Golea,ELG,DAUE,El Golea,DZ,DZA,Algeria,30.571294,2.859586
Busuanga,USU,RPVV,Busuanga,PH,PHL,Philippines,12.121458,120.100031
Brac,BWK,LDSB,Brac,HR,HRV,Croatia,43.285719,16.679719
Yanji Airport,YNJ,ZYYJ,Yanji,CN,CHN,China,42.8828,129.451258
Imo Airport,QOW,DNIM,Owerri,NG,NGA,Nigeria,5.42706,7.20603
Granada,GRX,LEGR,Granada,ES,ESP,Spain,37.188731,-3.777356
St George Airport,SGO,YSGE,Saint George,AU,AUS,Australia,-28.0497,148.595
Skagway Airport,SGY,PAGY,"Skagway, Alaska",US,USA,United States of America,59.4601,-135.316
Levelock Airport,KLL,,"Levelock, Alaska",US,USA,United States of America,59.128056,-156.858611
Gelendzik,GDZ,,Gelendzik,RU,RUS,Russian Federation,44.594111,38.025575
Antsalova Airport,WAQ,FMMG,Antsalova,MG,MDG,Madagascar,-18.7,44.617
Bath Spa railway station,QQX,,Bath,GB,GBR,Great Britain (United Kingdom),51.3775,-2.3564
Tandil,TDL,SAZT,Tandil,AR,ARG,Argentina,-37.237392,-59.227922
Nelson Lagoon,NLG,PAOU,"Nelson Lagoon, Alaska",US,USA,United States of America,56.0075,-161.160278
Dongola,DOG,HSDN,Dongola,SD,SDN,Sudan,19.153867,30.430094
Papa Stour Airport,PSV,,Papa Stour,GB,GBR,Great Britain (United Kingdom),60.3217,-1.69306
Mostar,OMO,LQMO,Mostar,BA,BIH,Bosnia & Herzegovina,43.2829,17.845878
Catania Fontanarossa,CTA,LICC,Catania,IT,ITA,Italy,37.466781,15.0664
Exmouth Airport,EXM,,Exmouth Gulf,AU,AUS,Australia,-21.933,114.128
Chhatrapati Shivaji Intl,BOM,VABB,Mumbai,IN,IND,India,19.088686,72.867919
Castlegar,YCG,CYCG,Castlegar,CA,CAN,Canada,49.296389,-117.6325
Papa Westray Airport,PPW,EGEP,Papa Westray,GB,GBR,Great Britain (United Kingdom),59.3517,-2.90028
Abbotsford,YXX,CYXX,Abbotsford,CA,CAN,Canada,49.025278,-122.360556
Venetie Airport,VEE,PAVE,"Venetie, Alaska",US,USA,United States of America,67.008611,-146.366389
Capitan Oriel Lea Plaza,TJA,SLTJ,Tarija,BO,BOL,Bolivia,-21.555736,-64.701325
Perth Jandakot,JAD,YPJT,Jandakot,AU,AUS,Australia,-32.0975,115.881111
Halmstad,HAD,ESMT,Halmstad,SE,SWE,Sweden,56.691128,12.820211
Hukuntsi,HUK,,Hukuntsi,BW,BWA,Botswana,-23.9897,21.7581
Santo Pekoa International Airport,SON,NVSS,Espiritu Santo,VU,VUT,Vanuatu,-15.505033,167.219742
Nekemt,NEK,,Nekemt,ET,ETH,Ethiopia,9.05,36.6
General Manuel Carlos Piar,PZO,SVPR,Puerto Ordaz,VE,VEN,Venezuela,8.288528,-62.760361
Leuterschach BF,LES,LEUT,Lesobeng,LS,LSO,Lesotho,47.75,10.601
Port Vila Bauerfield,VLI,NVVV,Port Vila,VU,VUT,Vanuatu,-17.699325,168.319794
Ryans Creek Aerodrome,SZS,NZRC,Stewart Island,NZ,NZL,New Zealand,-46.899693,168.101592
Marcos A Gelabert Intl,PAC,MPMG,Panama City,PA,PAN,Panama,8.973339,-79.555583
Tocumen Intl,PTY,MPTO,Panama City,PA,PAN,Panama,9.071364,-79.383453
Gdynia,QYD,EPOK,Gdynia,PL,POL,Poland,54.5797,18.5172
Madeira,FNC,LPMA,Funchal,PT,PRT,Portugal,32.697889,-16.774453
Baillif Airport,BBR,TFFB,Basse Terre,GP,GLP,Guadeloupe,16.0133,-61.7422
BUS STATION,QXZ,,Woergl,AT,AUT,Austria,0,0
Bocas Del Toro Intl,BOC,MPBO,Bocas Del Toro,PA,PAN,Panama,9.340853,-82.250842
Dembidollo Airport,DEM,HADD,Dembidollo,ET,ETH,Ethiopia,8.554,34.858
Dyce,ABZ,EGPD,Aberdeen,GB,GBR,Great Britain (United Kingdom),57.201944,-2.197778
Aberdeen Railway Station,ZXA,,Aberdeen,GB,GBR,Great Britain (United Kingdom),57.1474915,-2.095397
Rawlins Municipal Airport-Harvey Field,RWL,KFWL,"Rawlins, Wyoming",US,USA,United States of America,41.8055975,-107.19994
Petrozavodsk Airport,PES,ULPB,Petrozavodsk,RU,RUS,Russian Federation,61.8852,34.1547
Texada Gillies Bay Airport,YGB,CYGB,Gillies Bay,CA,CAN,Canada,49.6942,-124.518
Maryborough Airport,MBH,YMYB,Maryborough,AU,AUS,Australia,-25.5133,152.715
Swift Current,YYN,CYYN,Swift Current,CA,CAN,Canada,50.291944,-107.690556
Malacca,MKZ,WMKM,Malacca,MY,MYS,Malaysia,2.263361,102.251553
Puerto Cabezas,PUZ,MNPC,Puerto Cabezas,NI,NIC,Nicaragua,14.047194,-83.386722
Bradford Regional Airport,BFD,KBFD,"Bradford, Pennsylvania",US,USA,United States of America,41.8031,-78.6401
Geneve Cointrin,GVA,LSGG,Geneve,CH,CHE,Switzerland,46.238064,6.10895
Geneva railway station,ZHT,,Geneve,CH,CHE,Switzerland,46.210217,6.142447
FOB Salerno,KHT,OAKS,Khost,AF,AFG,Afghanistan,33.3334,69.952
Queen charlotte,ZQS,,Queen Charlotte Is,CA,CAN,Canada,0,0
Kolwezi,KWZ,FZQM,Kolwezi,CD,COD,"Congo, Democratic Republic of the",-10.765886,25.505714
Tari Airport,TIZ,AYTA,Tari,PG,PNG,Papua New Guinea,-5.845,142.948
Changde Airport,CGD,ZGCD,Changde,CN,CHN,China,28.9189,111.64
Kandahar,KDH,OAKN,Kandahar,AF,AFG,Afghanistan,31.505756,65.847822
Benbecula,BEB,EGPL,Benbecula,GB,GBR,Great Britain (United Kingdom),57.481111,-7.362778
Ankazoabo,WAK,,Ankazoabo,MG,MDG,Madagascar,0,0
Charnay,QNX,LFLM,Macon,FR,FRA,France,46.295103,4.795767
Orange County Airport,MGJ,KMGJ,"Montgomery, New York",US,USA,United States of America,41.5099884,-74.2646444
McArthur River Mine Airport,MCV,YMHU,Mcarthur River,AU,AUS,Australia,-16.4425,136.084
El Tari,KOE,WATT,Kupang,ID,IDN,Indonesia,-10.171583,123.671136
Barcelona,BCN,LEBL,Barcelona,ES,ESP,Spain,41.297078,2.078464
FRANCA RAILWAY STN,YJD,,Barcelona,ES,ESP,Spain,0,0
Saints Railway Stn,YJB,,Barcelona,ES,ESP,Spain,0,0
Dongshan,HLD,ZBLA,Hailar,CN,CHN,China,49.204997,119.825
Greenwood,GRD,,"Greenwood, South Carolina",US,USA,United States of America,34.24957,-82.1579
Cardiff,CWL,EGFF,Cardiff,GB,GBR,Great Britain (United Kingdom),51.396667,-3.343333
Cardiff railway station,CFW,,Cardiff,GB,GBR,Great Britain (United Kingdom),-32.94174,151.662891
Wau,WUG,,Wau,PG,PNG,Papua New Guinea,0,0
Mogilev Airport,MVQ,UMOO,Mogilyov,BY,BLR,Belarus,53.9549,30.0951
Lauriston Airport,CRU,,Carriacou Is,GD,GRD,Grenada,12.4761,-61.4728
Turkmenbashi,KRW,UTAK,Turkmanbashi,TM,TKM,Turkmenistan,40.063333,53.007222
Ilford Airport,ILF,CZBD,Ilford,CA,CAN,Canada,56.0614,-95.6139
Mzuzu,ZZU,FWUU,Mzuzu,MW,MWI,Malawi,-11.44475,34.011776
Megas Alexandros Intl,KVA,LGKV,Kavala,GR,GRC,Greece,40.913306,24.619223
Whakatane,WHK,NZWK,Whakatane,NZ,NZL,New Zealand,-37.920556,176.914167
Middle Georgia Rgnl,MCN,KMCN,"Macon, Georgia",US,USA,United States of America,32.69285,-83.649211
Singita Sabi Sands,INY,,Inyati,ZA,ZAF,South Africa,-24.815,31.42
New river valley,PSK,,"Dublin, Virginia",US,USA,United States of America,37.13829,-80.68105
Orchid Beach,OKB,KOKB,Orchid Beach,AU,AUS,Australia,-24.95841,153.3145
Charlottesville-Albemarle,CHO,KCHO,"Charlottesville, Virginia",US,USA,United States of America,38.138639,-78.452861
Cambridge Bay,YCB,CYCB,Cambridge Bay,CA,CAN,Canada,69.108055,-105.138333
Lakeland Linder Regional Airport,LAL,KLAL,"Lakeland, Florida",US,USA,United States of America,27.9889167,-82.0185556
Murcia San Javier,MJV,LELC,Murcia,ES,ESP,Spain,37.774972,-0.812389
RAILWAY STATION,XUT,,Murcia,ES,ESP,Spain,0,0
INTL REGION DE MURCIA,RMU,,Murcia,ES,ESP,Spain,37.802583,-1.125389
Gambella,GMB,HAGM,Gambela,ET,ETH,Ethiopia,8.128764,34.563131
Jining Airport,JNG,,Jining,CN,CHN,China,35.417,116.533
Palmas,PMW,SBPJ,Palmas,BR,BRA,Brazil,-10.241667,-48.35278
Pendopo Airport,PDO,WIPQ,Pendopo,ID,IDN,Indonesia,-3.286069,103.8796
Kelila,LLN,,Kelila,ID,IDN,Indonesia,-3.75,138.66667
Fria,FIG,GUFA,Fria,GN,GIN,Guinea,10.350556,-13.569167
Tavie Airport,PBJ,NVSI,Paama,VU,VUT,Vanuatu,-16.439,168.257
Pleiku Airport,PXU,VVPK,Pleiku,VN,VNM,Viet Nam,14.004522,108.017158
Blackpool,BLK,EGNH,Blackpool,GB,GBR,Great Britain (United Kingdom),53.771667,-3.028611
Wasior,WSR,,Wasior,ID,IDN,Indonesia,-2.73359,134.51801
Mbs Intl,MBS,KMBS,"Saginaw, Michigan",US,USA,United States of America,43.532913,-84.079647
Sultan Thaha,DJB,WIPA,Jambi,ID,IDN,Indonesia,-1.638017,103.644378
Beslan Airport,OGZ,URMO,Vladikavkaz,RU,RUS,Russian Federation,43.2051,44.6066
Mulu,MZV,,Mulu,MY,MYS,Malaysia,4.048333,114.805
Schiphol,AMS,EHAM,Amsterdam,NL,NLD,Netherlands (Holland),52.308613,4.763889
Amsterdam Centraal,ZYA,,Amsterdam,NL,NLD,Netherlands (Holland),52.3787,4.899931
Gran Canaria,LPA,GCLP,Gran Canaria,ES,ESP,Spain,27.931886,-15.386586
Rotuma Airport,RTA,NFNR,Rotuma Island,FJ,FJI,Fiji,-12.4825,177.071
Kasane,BBK,FBKE,Kasane,BW,BWA,Botswana,-17.832875,25.1624
South Bimini,BIM,MYBS,Bimini,BS,BHS,Bahamas,25.699881,-79.264656
Bimini North Seaplane Base,NSB,,Bimini,BS,BHS,Bahamas,25.767,-79.25
Tribhuvan Intl,KTM,VNKT,Kathmandu,NP,NPL,Nepal,27.696583,85.3591
Whitsunday Airstrip,WSY,YWHI,Airlie Beach,AU,AUS,Australia,-20.276,148.755
Oscoda Wurtsmith,OSC,KOSC,"Oscoda, Michigan",US,USA,United States of America,44.451558,-83.394053
Vadodara,BDQ,VABO,Vadodara,IN,IND,India,22.336164,73.226289
El recreo,ELJ,,El Recreo,CO,COL,Colombia,0,0
Hanau Aaf,ZNF,ETID,Hanau,DE,DEU,Germany,50.169189,8.961586
Thunder Bay,YQT,CYQT,Thunder Bay,CA,CAN,Canada,48.371944,-89.323889
Lemoore Nas,NLC,KNLC,"Lemoore, California",US,USA,United States of America,36.333012,-119.95208
Radom,RDO,,Radom,PL,POL,Poland,51.39,21.21
Pingtung South,PIF,RCDC,Pingtung,TW,TWN,Taiwan,22.672367,120.461728
Fox Glacier Airstrip,FGL,,Fox Glacier,NZ,NZL,New Zealand,-43.4,170.033
Chapeco,XAP,SBCH,Chapeco,BR,BRA,Brazil,-27.134219,-52.656553
Sukkur,SKZ,OPSK,Sukkur,PK,PAK,Pakistan,27.721989,68.791683
Scott Afb Midamerica,BLV,KBLV,"Belleville, Illinois",US,USA,United States of America,38.545178,-89.835183
Wewak Intl,WWK,AYWK,Wewak,PG,PNG,Papua New Guinea,-3.583828,143.669186
Helgoland-Düne Airport,HGL,EDXH,Helgoland,DE,DEU,Germany,54.1853,7.91583
Taiwan Taoyuan Intl,TPE,RCTP,Taipei,TW,TWN,Taiwan,25.077731,121.232822
Sungshan,TSA,RCSS,Taipei,TW,TWN,Taiwan,25.069722,121.5525
Bellona,BNY,,Bellona,SB,SLB,Solomon Islands,-11.302,159.8
Pakuba Airport,PAF,HUPA,Pakuba,UG,UGA,Uganda,2.3275,31.5
Santiago,SCQ,LEST,Santiago,ES,ESP,Spain,42.896333,-8.415144
Liberal Muni,LBL,KLBL,"Liberal, Kansas",US,USA,United States of America,37.044222,-100.95986
Berbera,BBO,HCMI,Berbera,SO,SOM,Somali,10.389167,44.941106
Iles De La Madeleine,YGR,CYGR,Iles De La Madele,CA,CAN,Canada,47.424721,-61.778056
Сумы,UMY,,Sumi,UA,UKR,Ukraine,50.8583,34.7625
Jyvaskyla,JYV,EFJY,Jyvaskyla,FI,FIN,Finland,62.399453,25.678253
Yongzhou Lingling Airport,LLF,,Ling Ling,CN,CHN,China,26.345556,111.612222
Qiqihar Sanjiazi Airport,NDG,ZYQQ,Qiqihar,CN,CHN,China,47.239628,123.918131
Waddington,WTN,EGXW,Waddington,GB,GBR,Great Britain (United Kingdom),53.166167,-0.523811
Arusha,ARK,HTAR,Arusha,TZ,TZA,Tanzania,-3.367794,36.633333
Tiska,DJG,DAAJ,Djanet,DZ,DZA,Algeria,24.292767,9.452444
Tacoma Narrows Airport,TIW,KTIW,"Tacoma, Washington",US,USA,United States of America,47.267944,-122.57811
Gray Aaf,GRF,KGRF,"Tacoma, Washington",US,USA,United States of America,47.079217,-122.580783
Mc Chord Afb,TCM,KTCM,"Tacoma, Washington",US,USA,United States of America,47.137678,-122.476475
Tununak Airport,TNK,,"Tununak, Alaska",US,USA,United States of America,60.575556,-165.271667
Sanliurfa Airport,SFQ,LTCH,Sanliurfa,TR,TUR,Turkey,37.094261,38.847103
Sanliurfa GAP,GNY,LTCS,Sanliurfa,TR,TUR,Turkey,37.45,38.9
Jefferson County Intl,TWD,,"Port Townsend, Washington",US,USA,United States of America,48.0314,-122.4838
Craiova,CRA,LRCV,Craiova,RO,ROU,Romania,44.318139,23.888611
Igloolik Airport,YGT,CYGT,Igloolik,CA,CAN,Canada,69.3647,-81.8161
Warraber Island Airport,SYU,YWBS,Sue Island,AU,AUS,Australia,-10.2083,142.825
Surgut,SGC,USRR,Surgut,RU,RUS,Russian Federation,61.340905,73.408628
Sleetmute Airport,SLQ,PASL,"Sleetmute, Alaska",US,USA,United States of America,61.700566,-157.165833
Long Beach,LGB,KLGB,"Long Beach, California",US,USA,United States of America,33.817722,-118.151611
Trenton,YTR,CYTR,Trenton,CA,CAN,Canada,44.118889,-77.528056
Cancun Intl,CUN,MMUN,Cancun,MX,MEX,Mexico,21.036528,-86.877083
Chilliwack,YCW,CYCW,Chilliwack,CA,CAN,Canada,49.152779,-121.93889
Sherman Aaf,FLV,KFLV,"Fort Leavenworth, Kansas",US,USA,United States of America,39.368332,-94.914686
Guanajuato Intl,BJX,MMLO,Leon,MX,MEX,Mexico,20.993464,-101.480847
Vernal Regional Airport,VEL,KVEL,"Vernal, Utah",US,USA,United States of America,40.440833,-109.51
Jumla,JUM,VNJL,Jumla,NP,NPL,Nepal,29.274167,82.193333
Mackinac Island Airport,MCD,,"Mackinac Island, Michigan",US,USA,United States of America,45.8649344,-84.637344
Villach Hauptbahnhof,QVL,,Villach,AT,AUT,Austria,46.618333,13.848333
Sittwe,AKY,VYSW,Sittwe,MM,MMR,Myanmar,20.132708,92.872628
Barakoma,VEV,,Barakoma,SB,SLB,Solomon Islands,-7.91278,156.70599
Jodhpur,JDH,VIJO,Jodhpur,IN,IND,India,26.251092,73.048869
Kamusi Airport,KUY,,Kamusi,PG,PNG,Papua New Guinea,-7.42035,143.122
San Fernando De Apure,SFD,SVSR,San Fernando De Apure,VE,VEN,Venezuela,7.883317,-67.444025
Havre City Co,HVR,KHVR,"Havre, MO",US,USA,United States of America,48.542983,-109.762342
Ua Pou Airport,UAP,NTMP,Ua Pou,PF,PYF,French Polynesia,-9.35167,-140.078
Owensboro Daviess County Airport,OWB,KOWB,"Owensboro, KY",US,USA,United States of America,37.7401,-87.1668
7 Novembre,TBJ,DTKA,Tabarka,TN,TUN,Tunisia,36.978333,8.876389
Tuktoyaktuk,YUB,CYUB,Tuktoyaktuk,CA,CAN,Canada,69.433334,-133.026389
Alldays Airport,ADY,FAAL,Alldays,ZA,ZAF,South Africa,-22.678889,29.055278
Niue International Airport,IUE,NIUE,Niue Island,NU,NIU,Niue,-19.080028,-169.925639
San Juan - Uganik Seaplane Base,WSJ,,"San Juan, Alaska",US,USA,United States of America,57.730278,-153.320556
Benina,BEN,HLLB,Benghazi,LY,LBY,Libyan Arab Jamahiriya,32.096786,20.269472
Alma Airport,YTF,CYTF,Alma,CA,CAN,Canada,48.508611,-71.641389
Almirante Zar,REL,SAVT,Trelew,AR,ARG,Argentina,-43.2105,-65.270319
Taiping,HRB,ZYHB,Harbin,CN,CHN,China,45.623403,126.250328
Iringa,IRI,HTIR,Iringa,TZ,TZA,Tanzania,-7.668633,35.752114
Yellowknife,YZF,CYZF,Yellowknife,CA,CAN,Canada,62.462778,-114.440278
Anaa,AAA,NTGA,Anaa,PF,PYF,French Polynesia,-17.352606,-145.509956
Fajardo,NNJ,,Fajardo,PR,PRI,Puerto Rico,0,0
Diego Jimenez Torres,FAJ,TJFA,Fajardo,PR,PRI,Puerto Rico,18.308889,-65.661861
Rio Grande,RIG,SBRG,Rio Grande,BR,BRA,Brazil,-32.082617,-52.166542
Moose Jaw Air Vice Marshal C M Mcewen,YMJ,CYMJ,Moose Jaw,CA,CAN,Canada,50.330278,-105.559167
Yelizovo,PKC,UHPP,Petropavlovsk Kamchatsky,RU,RUS,Russian Federation,53.169342,158.425544
Westray Airport,WRY,EGEW,Westray,GB,GBR,Great Britain (United Kingdom),59.3503,-2.95
Delta County Airport,ESC,KESC,"Escanaba, Michigan",US,USA,United States of America,45.722778,-87.093611
Del Caribe Intl Gen Santiago Marino,PMV,SVMG,Porlamar,VE,VEN,Venezuela,10.912926,-63.967581
Benito Salas,NVA,SKNV,Neiva,CO,COL,Colombia,2.95015,-75.294
Kota Kinabalu Intl,BKI,WBKK,Kota Kinabalu,MY,MYS,Malaysia,5.937208,116.051181
Brest,BQT,UMBB,Brest,BY,BLR,Belarus,52.06,23.53
Ouargla,OGX,DAUU,Ouargla,DZ,DZA,Algeria,31.917223,5.412778
Playa del Carmen Airport,PCM,,Playa Del Carmen,MX,MEX,Mexico,20.6225,-87.082221
Ciudad del Este,AGT,SGES,Ciudad Del Este,PY,PRY,Paraguay,-25.4555,-54.843592
Sarasota Bradenton Intl,SRQ,KSRQ,"Sarasota, Florida",US,USA,United States of America,27.395444,-82.554389
Padova,QPA,LIPU,Padova,IT,ITA,Italy,45.395767,11.847903
Liverpool,LPL,EGGP,Liverpool,GB,GBR,Great Britain (United Kingdom),53.333611,-2.849722
Liverpool lime street,QЛС,,Liverpool,GB,GBR,Great Britain (United Kingdom),0,0
CENTRAL RAILWAY STN,LXC,,Liverpool,GB,GBR,Great Britain (United Kingdom),53.4045,-2.9797
Liverpool Lime Street railway station,LXL,,Liverpool,GB,GBR,Great Britain (United Kingdom),53.4075,-2.9784
Angoon Seaplane Base,AGN,PAGN,"Angoon, Alaska",US,USA,United States of America,57.503611,-134.585
Redding Muni,RDD,KRDD,"Redding, California",US,USA,United States of America,40.509,-122.293389
Moundou,MQQ,FTTD,Moundou,TD,TCD,Chad,8.624406,16.071419
Yoron,RNJ,RORY,Yoronjima,JP,JPN,Japan,27.043964,128.401517
Carauari Airport,CAF,SWCA,Carauari,BR,BRA,Brazil,-4.871389,-66.8975
Fulleborn,FUB,,Fulleborn,PG,PNG,Papua New Guinea,0,0
Buckland Airport,BKC,PABL,"Buckland, Alaska",US,USA,United States of America,65.981667,-161.149167
Foothills Regional Airport,MRN,KMRN,"Morganton, North Carolina",US,USA,United States of America,35.8202336,-81.6115119
Matak Airport,MWK,WIOM,Matak,ID,IDN,Indonesia,3.348119,106.25805
Falls Intl,INL,KINL,"International Falls, MN",US,USA,United States of America,48.566186,-93.403067
Wotje Atoll Airport,WTE,N36,Wotje Island,MH,MHL,Marshall Islands,9.46667,170.233
West Point Village Seaplane Base,KWP,,"West Point, Alaska",US,USA,United States of America,57.77,-153.548889
Mission Field Airport,LVM,KLVM,"Livingston, Montana",US,USA,United States of America,45.6993889,-110.4483056
Kleinsee,KLZ,FAKZ,Kleinzee,ZA,ZAF,South Africa,-29.688403,17.094006
Doomadgee Airport,DMD,YDMG,Doomadgee,AU,AUS,Australia,-17.9403,138.822
Kaieteur International Airport,KIA,PSKA,Kaiapit,PG,PNG,Papua New Guinea,5.163333,-59.483333
Mara Serena Airport,MRE,,Mara Lodges,KE,KEN,Kenya,-1.406111,35.008056
Røssvoll Airport,MQN,ENRA,Mo I Rana,NO,NOR,Norway,66.3639,14.3014
Ponta Delgada,PDL,LPPD,Ponta Delgada Azores,PT,PRT,Portugal,37.741184,-25.69787
Daniel Oduber Quiros Intl,LIR,MRLB,Liberia,CR,CRI,Costa Rica,10.593289,-85.544408
Eagle Airport,EAA,PAEG,"Eagle, Alaska",US,USA,United States of America,64.778056,-141.149722
Nkayi,NKY,,Nkayi,CG,COG,Congo,0,0
San Cristóbal Airport,SCY,SEST,San Cristobal,EC,ECU,Ecuador,-0.910206,-89.61745
Gyumri,LWN,UDSG,Gyumri,AM,ARM,Armenia,40.750369,43.859342
Shymkent,CIT,UAII,Shimkent,KZ,KAZ,Kazakhstan,42.368454,69.482007
Sigonella,NSY,LICZ,Sigonella,IT,ITA,Italy,37.401664,14.922358
Dalanzadgad Airport,DLZ,ZMDZ,Dalanzagdad,MN,MNG,Mongolia,43.5917,104.43
Laconia,LCI,,"Laconia, New Hampshire",US,USA,United States of America,43.57296,-71.41818
Felker Aaf,FAF,KFAF,"Fort Eustis, Virginia",US,USA,United States of America,37.1325,-76.608841
Savannakhet,ZVK,VLSK,Savannakhet,LA,LAO,Lao People's Democratic Republic,16.556594,104.759531
Eniwetok Airport,ENT,PKMA,Enewetak Island,MH,MHL,Marshall Islands,11.34075,162.327861
Wai Sha Airport,SWA,ZGOW,Shantou,CN,CHN,China,23.4,116.683
Lewiston Nez Perce Co,LWS,KLWS,"Lewiston, Idaho",US,USA,United States of America,46.3745,-117.015389
Malad City,MLD,KMLD,"Malad City, Idaho",US,USA,United States of America,42.17,-112.289
Ardmore Muni,ADM,KADM,"Ardmore, Oklahoma",US,USA,United States of America,34.300833,-97.008889
Kokshetau Airport,KOV,UACK,Kokshetau,KZ,KAZ,Kazakhstan,53.3291,69.5946
Hall Beach,YUX,CYUX,Hall Beach,CA,CAN,Canada,68.776111,-81.243611
Plymouth Municipal Airport,PYM,KPYM,"Plymouth, Massachusetts",US,USA,United States of America,41.9090278,-70.7287778
Mount Magnet Airport,MMG,YMOG,Mount Magnet,AU,AUS,Australia,-28.1161,117.842
Osh,OSS,UAFO,Osh,KG,KGZ,Kyrgyzstan,40.608989,72.793269
Gustavus Airport,GST,PAGS,"Gustavus, Alaska",US,USA,United States of America,58.4253,-135.707
Aksu Airport,AKU,ZWAK,Aksu,CN,CHN,China,41.2625,80.2917
Tallinn,TLL,EETN,Tallinn,EE,EST,Estonia,59.413317,24.832844
Pirita harbor,QUF,,Tallinn,EE,EST,Estonia,0,0
Bryansk,BZK,UUBP,Bryansk,RU,RUS,Russian Federation,53.214194,34.176447
Jefman,SOQ,WASS,Sorong,ID,IDN,Indonesia,-0.926358,131.121194
Lake Tahoe Airport,TVL,KTVL,"Lake Tahoe South, California",US,USA,United States of America,38.893889,-119.995278
Waco kungo,CEO,,Waco Kungo,AO,AGO,Angola,0,0
HBF RAILWAY STATION,QUL,,Ulm,DE,DEU,Germany,0,0
Gainesville Rgnl,GNV,KGNV,"Gainesville, Florida",US,USA,United States of America,29.690056,-82.271778
Guerima,GMC,,Guerima,CO,COL,Colombia,0,0
Shannon,SNN,EINN,Shannon,IE,IRL,Ireland,52.701978,-8.924817
Bahir Dar,BJR,HABD,Bahar Dar,ET,ETH,Ethiopia,11.608075,37.321644
Aleknagik Airport,WKK,5A8,"Aleknagik, Alaska",US,USA,United States of America,59.2826,-158.618
Kota,KTU,VIKO,Kota,IN,IND,India,25.160219,75.845631
Southend,SEN,EGMC,Southend,GB,GBR,Great Britain (United Kingdom),51.571389,0.695556
Decatur island,DTR,,"Decatur Island, Washington",US,USA,United States of America,0,0
Belgorod International Airport,EGO,UUOB,Belgorod,RU,RUS,Russian Federation,50.6438,36.5901
Kisangani Simisini,FKI,FZIA,Kisangani,CD,COD,"Congo, Democratic Republic of the",0.5175,25.155014
Ciudad Del Carmen Intl,CME,MMCE,Ciudad Del Carmen,MX,MEX,Mexico,18.653739,-91.799017
Santa Monica Municipal Airport,SMO,KSMO,"Santa Monica, California",US,USA,United States of America,34.0158333,-118.4513056
Kuini Lavenia Airport,NTT,NFTP,Niuatoputapu,TO,TON,Tonga,-15.9767,-173.755
Mason City Municipal,MCW,KMCW,"Mason City, Iowa",US,USA,United States of America,43.2247,-93.4067
Zweibruecken,ZQW,,Saarbruecken,DE,DEU,Germany,49.209445,7.401323
Mainz Finthen,QFZ,,Saarbruecken,DE,DEU,Germany,0,0
Saarbrucken,SCN,EDDR,Saarbruecken,DE,DEU,Germany,49.214553,7.109508
Dunk Island Airport,DKI,YDKI,Dunk Island,AU,AUS,Australia,-17.939722,146.141944
Agra,AGR,VIAG,Agra,IN,IND,India,27.155831,77.960892
Barcelos Airport,BAZ,SWBC,Barbelos,BR,BRA,Brazil,-0.975,-62.923889
Macaé Airport,MEA,SBME,Macae,BR,BRA,Brazil,-22.343,-41.766
Ignacio Agramonte Intl,CMW,MUCM,Camaguey,CU,CUB,Cuba,21.420428,-77.847433
Soummam,BJA,DAAE,Bejaia,DZ,DZA,Algeria,36.711997,5.069922
White Mountain Airport,WMO,PAWM,"White Mountain, Alaska",US,USA,United States of America,64.689167,-163.412778
Queenstown,ZQN,NZQN,Queenstown,NZ,NZL,New Zealand,-45.021111,168.739167
Onslow,ONS,YOLW,Onslow,AU,AUS,Australia,-21.667,115.116
Santa Maria Pub Cpt G Allan Hancock Airport,SMX,KSMX,"Santa Maria, California",US,USA,United States of America,34.8989,-120.457
Mindiptana,MDP,,Mindiptana,ID,IDN,Indonesia,-5.75,140.367
Kostroma Sokerkino,KMW,UUBD,Kostroma,RU,RUS,Russian Federation,57.807752,41.013047
Brunei Intl,BWN,WBSB,Bandar Seri Begaw,BN,BRN,Brunei Darussalam,4.9442,114.928353
Moanda,MFF,,Moanda,GA,GAB,Gabon,-1.53333,13.26667
Augsburg HBF,AUB,AUGS,Itauba,BR,BRA,Brazil,48.3655,10.886
Garfield County Regional Airport,RIL,KRIL,"Rifle, Colorado",US,USA,United States of America,39.5263056,-107.7269444
Fakarava,FAV,NTGF,Fakarava,PF,PYF,French Polynesia,-16.05415,-145.656994
Kandla,IXY,VAKE,Kandla,IN,IND,India,23.112719,70.100289
Long island ref fiel,FRG,,"Farmingdale, New York",US,USA,United States of America,40.72871,-73.4129
Allahabad,IXD,VIAL,Allahabad,IN,IND,India,25.440064,81.733872
New Stuyahok Airport,KNW,PANW,"New Stuyahok, Alaska",US,USA,United States of America,59.4499,-157.328
Rioja,RIJ,,Rioja,PE,PER,Peru,-6.06786,-77.15998
Pondicherry,PNY,VOPC,Pondicherry,IN,IND,India,11.968722,79.810058
Mahlon Sweet Fld,EUG,KEUG,"Eugene, Oregon",US,USA,United States of America,44.124583,-123.211972
Atikokan Muni,YIB,CYIB,Atikokan,CA,CAN,Canada,48.773888,-91.638611
Kayes Dag Dag,KYS,GAKY,Kayes,ML,MLI,Mali,14.481233,-11.404397
Ukunda Airport,UKA,HKUK,Ukunda,KE,KEN,Kenya,-4.29694,39.5714
Saab,LPI,ESSL,Linkoeping,SE,SWE,Sweden,58.40615,15.680508
Narathiwat,NAW,VTSC,Narathiwat,TH,THA,Thailand,6.519922,101.7434
Bojnourd Airport,BJB,OIMN,Bojnord,IR,IRN,Iran,37.492958,57.308219
Wapekeka Airport,YAX,CKB6,Angling Lake,CA,CAN,Canada,53.8492,-89.5794
Evenes,EVE,ENEV,Harstad-Narvik,NO,NOR,Norway,68.4913,16.678108
Adams Fld,LIT,KLIT,"Little Rock, Arkansas",US,USA,United States of America,34.729444,-92.224306
Wausau Downtown Airport,AUW,,"Wausau, Wisconsin",US,USA,United States of America,44.9262845,-89.6270018
Central Wisconsin,CWA,KCWA,"Wausau, Wisconsin",US,USA,United States of America,44.772726,-89.646635
SIEM REAP ANGKOR,SAI,,Siem Reap,KH,KHM,Cambodia,13.410666,103.81284
Siem Reap,REP,VDSR,Siem Reap,KH,KHM,Cambodia,13.410666,103.81284
Les Ajoncs,EDM,LFRI,La Roche,FR,FRA,France,46.701944,-1.378625
Skagen,SKN,ENSK,Stokmarknes,NO,NOR,Norway,68.580833,15.026111
Koulamoutou Airport,KOU,FOGK,Koulamoutou,GA,GAB,Gabon,-1.18461,12.4413
Beira,BEW,FQBR,Beira,MZ,MOZ,Mozambique,-19.796419,34.907556
Kaufana Airport,EUA,NFTE,Eua,TO,TON,Tonga,-21.3783,-174.958
Palonegro,BGA,SKBG,Bucaramanga,CO,COL,Colombia,7.1265,-73.184778
Le Pontreau,CET,LFOU,Cholet,FR,FRA,France,47.082136,-0.877064
Galcaio Airport,GLK,HCMR,Galcaio,SO,SOM,Somali,6.78083,47.4547
Susilo Airport,SQG,WIOS,Sintang,ID,IDN,Indonesia,0.063619,111.473428
Coto 47,OTR,MRCC,Coto 47,CR,CRI,Costa Rica,8.601556,-82.968614
Fukushima Airport,FKS,RJSF,Fukushima,JP,JPN,Japan,37.2274,140.431
Maiduguri,MIU,DNMA,Maiduguri,NG,NGA,Nigeria,11.855347,13.08095
Tarapoa,TPC,SETR,Tarapoa,EC,ECU,Ecuador,-0.122956,-76.33775
El Paso Intl,ELP,KELP,"El Paso, Texas",US,USA,United States of America,31.80725,-106.377583
Biggs Aaf,BIF,KBIF,"El Paso, Texas",US,USA,United States of America,31.849528,-106.380039
Tengchong Tuofeng Airport,TCZ,ZUTC,Tsetserleg,MN,MNG,Mongolia,24.938651,98.483591
Corn Island Airport,RNI,MNCI,Corn Island,NI,NIC,Nicaragua,12.168611,-83.0675
Orapa Airport,ORP,FBOR,Orapa,BW,BWA,Botswana,-21.2667,25.3167
Datadawai Airport,DTD,WALJ,Datadawai,ID,IDN,Indonesia,0.717,116.483
Saint Cloud Regional Airport,STC,KSTC,"Saint Cloud, MN",US,USA,United States of America,45.546556,-94.059889
Griffiss Afld,RME,KRME,"Rome, New York",US,USA,United States of America,43.2338,-75.407033
Polokwane International,PTG,FAPI,Pietersburg,ZA,ZAF,South Africa,-23.926089,29.484422
Hat Yai Intl,HDY,VTSS,Hat Yai,TH,THA,Thailand,6.933206,100.392975
Newport News Williamsburg Intl,PHF,KPHF,"Newport News Hamp, Virginia",US,USA,United States of America,37.131894,-76.492989
King Abdulaziz Intl,JED,OEJN,Jeddah,SA,SAU,Saudi Arabia,21.679564,39.156536
Southampton,SOU,EGHI,Southampton,GB,GBR,Great Britain (United Kingdom),50.950261,-1.356803
Rafael Cabrera,GER,MUNG,Nueva Gerona,CU,CUB,Cuba,21.834689,-82.783819
Supadio,PNK,WIOO,Pontianak,ID,IDN,Indonesia,-0.150711,109.403892
Emirau,EMI,,Emirau,PG,PNG,Papua New Guinea,0,0
Manas,FRU,UAFM,Bishkek,KG,KGZ,Kyrgyzstan,43.061306,74.477556
Kirksville Regional Airport,IRK,KIRK,"Kirksville, Missouri",US,USA,United States of America,40.0935,-92.5449
Ingeniero Alberto Acuna Ongay Intl,CPE,MMCP,Campeche,MX,MEX,Mexico,19.816794,-90.500314
Lusaka Intl,LUN,FLLS,Lusaka,ZM,ZMB,Zambia,-15.330817,28.452628
Mankato municipal ap,MKT,,"Mankato, MN",US,USA,United States of America,44.22164,-93.91874
Union Island International Airport,UNI,TVSU,Union Island,VC,VCT,Saint Vincent and the Grenadines,12.583,-61.417
Majkin Airport,MJE,,Majkin,MH,MHL,Marshall Islands,7.833,168.167
Sioux Gateway Col Bud Day Fld,SUX,KSUX,"Sioux City, IA",US,USA,United States of America,42.402603,-96.384367
Abilene Rgnl,ABI,KABI,"Abilene, Texas",US,USA,United States of America,32.411319,-99.681897
Dyess Afb,DYS,KDYS,"Abilene, Texas",US,USA,United States of America,32.420756,-99.8546
Phuket Intl,HKT,VTSP,Phuket,TH,THA,Thailand,8.1132,98.316872
Donaueschingen Villingen,ZQL,EDTD,Villingen Schwenningen,DE,DEU,Germany,47.973331,8.522223
Gassim,ELQ,OEGS,Gassim,SA,SAU,Saudi Arabia,26.302822,43.773911
Kushiro Airport,KUH,RJCK,Kushiro,JP,JPN,Japan,43.041,144.193
Lake Cumberland Regional Airport,SME,KSME,"Somerset, Kentucky",US,USA,United States of America,37.053611,-84.615556
Baraboo Wisconsin Dells Airport,DLL,KDLL,"Dillon, South Carolina",US,USA,United States of America,43.5217843,-89.7709266
La Tabatière Airport,ZLT,CTU5,La Tabatiere,CA,CAN,Canada,50.8308,-58.9756
Comandante Fap German Arias Graziani,ATA,SPHZ,Anta,PE,PER,Peru,-9.347444,-77.598392
Kegaska Airport,ZKG,CTK6,Kegaska,CA,CAN,Canada,50.195833,-61.265833
San Antonio Del Tachira,SVZ,SVSA,San Antonio,VE,VEN,Venezuela,7.840831,-72.439742
Kontum Airport,KON,,Kontum,VN,VNM,Viet Nam,14.35,108.017
Melville Hall,DOM,TDPD,Dominica,DM,DMA,Dominica,15.547028,-61.3
Canefield,DCF,TDCF,Dominica,DM,DMA,Dominica,15.336719,-61.392211
Bandar Lengeh,BDH,OIBL,Bandar Lengeh,IR,IRN,Iran,26.532,54.824847
Allegheny County Airport,AGC,KAGC,"Pittsburgh, Pennsylvania",US,USA,United States of America,40.3544,-79.9302
Civic ar hpt,CVA,,"Pittsburgh, Pennsylvania",US,USA,United States of America,0,0
Pittsburgh Intl,PIT,KPIT,"Pittsburgh, Pennsylvania",US,USA,United States of America,40.491467,-80.232872
Cotopaxi International Airport,LTX,,Latacunga,EC,ECU,Ecuador,-0.5425,-78.3657
Ivujivik Airport,YIK,CYIK,Ivujivik,CA,CAN,Canada,62.4173,-77.9253
Mizan Teferi Airport,MTF,HAMT,Mizan Teferi,ET,ETH,Ethiopia,6.967,35.533
Kitakyushu,KKJ,RJFR,Kitakyushu,JP,JPN,Japan,33.845942,131.034689
Haines Airport,HNS,PAHN,"Haines, Alaska",US,USA,United States of America,59.2438,-135.524
Bhairahawa,BWA,VNBW,Bhairawa,NP,NPL,Nepal,27.505703,83.41625
Chennai Intl,MAA,VOMM,Chennai,IN,IND,India,12.994414,80.180517
Samedan,SMV,LSZS,Saint Moritz,CH,CHE,Switzerland,46.534075,9.884106
Gabes,GAE,DTTG,Gabes,TN,TUN,Tunisia,33.876919,10.103333
Long Seridan Airport,ODN,WBGI,Long Seridan,MY,MYS,Malaysia,3.967,115.05
American river,RCN,,American River,AU,AUS,Australia,0,0
Syracuse Hancock Intl,SYR,KSYR,"Syracuse, New York",US,USA,United States of America,43.111187,-76.106311
Mianyang Nanjiao Airport,MIG,ZUMY,Mianyang,CN,CHN,China,31.4281,104.741
Basango Mboliasa Airport,KRZ,FZBT,Kiri,CD,COD,"Congo, Democratic Republic of the",-1.435,19.024
Cairns Intl,CNS,YBCS,Cairns,AU,AUS,Australia,-16.885833,145.755278
Ensenada,ESE,MMES,Ensenada,MX,MEX,Mexico,31.795281,-116.602772
Harrisburg,HAR,,"Harrisburg, Pennsylvania",US,USA,United States of America,40.22056,-76.85354
Harrisburg Intl,MDT,KMDT,"Harrisburg, Pennsylvania",US,USA,United States of America,40.193494,-76.763403
Craven Co Rgnl,EWN,KEWN,"New Bern, North Carolina",US,USA,United States of America,35.072972,-77.042944
Krabi,KBV,VTSG,Krabi,TH,THA,Thailand,8.095969,98.988764
Aeroclub Cioca,CIO,LRT2,Concepcion,PY,PRY,Paraguay,45.471009,21.111967
Rundu,NDU,FYRU,Rundu,,NAM,Namibia,-17.956461,19.719439
Lac Brochet Airport,XLB,CZWH,Lac Brochet,CA,CAN,Canada,58.614167,-101.468889
Longvic,DIJ,LFSD,Dijon,FR,FRA,France,47.26889,5.09
Hilo Intl,ITO,PHTO,"Hilo, Hawaii",US,USA,United States of America,19.721375,-155.048469
Suki Airport,SKC,,Suki,PG,PNG,Papua New Guinea,-8.033,141.717
Balkanabat,BKN,,Birni Nkoni,NE,NER,Niger,39.481389,54.362778
Beauregard Rgnl,DRI,KDRI,"De Ridder, Louisiana",US,USA,United States of America,30.831722,-93.339917
Heroes Del Acre,CIJ,SLCO,Cobija,BO,BOL,Bolivia,-11.040436,-68.782972
Singleton,SIX,,Singleton,AU,AUS,Australia,-32.6167,151.2
Mayor General FAP Armando Revoredo Iglesias Airport,CJA,SPJR,Cajamarca,PE,PER,Peru,-7.139183,-78.4894
Bowman Fld,LOU,KLOU,"Louisville, KY",US,USA,United States of America,38.228,-85.663722
Intercont,LJC,,"Louisville, KY",US,USA,United States of America,0,0
Louisville International Airport,SDF,KSDF,"Louisville, KY",US,USA,United States of America,38.1740858,-85.7364989
Turukhansk,THX,UOTT,Turukhansk,RU,RUS,Russian Federation,65.798132,87.934742
Alert,YLT,CYLT,Alert,CA,CAN,Canada,82.517778,-62.280556
Del Norte County Airport,CEC,KCEC,"Crescent City, California",US,USA,United States of America,41.7802,-124.237
Al Baha,ABT,OEBA,Al Baha,SA,SAU,Saudi Arabia,20.296139,41.634277
Sambava,SVB,FMNS,Sambava,MG,MDG,Madagascar,-14.278611,50.174721
Ukhta,UCT,,Ukhta,RU,RUS,Russian Federation,63.555363,53.80534
Patuxent River Nas,NHK,KNHK,"Patuxent River, Maryland",US,USA,United States of America,38.285981,-76.411781
Haeju Airport,HAE,,"Havasupai, Arizona",US,USA,United States of America,38.00543,125.77863
N'dende,KDN,,Ndende,GA,GAB,Gabon,-2.4,11.367
Mitiga Airport,MJI,HLLM,Mitiga,LY,LBY,Libyan Arab Jamahiriya,32.8941,13.276
Val De Cans Intl,BEL,SBBE,Belem,BR,BRA,Brazil,-1.37925,-48.476292
Cincinnati Northern Kentucky Intl,CVG,KCVG,"Cincinnati, Ohio",US,USA,United States of America,39.048836,-84.667822
Cincinnati Muni Lunken Fld,LUK,KLUK,"Cincinnati, Ohio",US,USA,United States of America,39.103333,-84.418611
Pack creek,PBK,,"Pack Creek, Alaska",US,USA,United States of America,0,0
Fatmawati Soekarno,BKS,WIPL,Bengkulu,ID,IDN,Indonesia,-3.8637,102.339036
Cauayan Airport,CYZ,RPUY,Cauayan,PH,PHL,Philippines,16.929861,121.753036
Dunedin,DUD,NZDN,Dunedin,NZ,NZL,New Zealand,-45.928055,170.198333
El Alto Intl,LPB,SLLP,La Paz,BO,BOL,Bolivia,-16.513339,-68.192256
Dillingham,DLG,PADL,"Dillingham, Alaska",US,USA,United States of America,59.044667,-158.5055
Bathurst Airport,BHS,YBTH,Bathurst,AU,AUS,Australia,-33.4094,149.652
Nabire,NBX,WABI,Nabire,ID,IDN,Indonesia,-3.368183,135.496406
Kassala,KSL,HSKA,Kassala,SD,SDN,Sudan,15.387494,36.328842
Aberdeen Regional Airport,ABR,KABR,"Aberdeen, SD",US,USA,United States of America,45.4491,-98.4218
Lamu Manda,LAU,HKLU,Lamu,KE,KEN,Kenya,-2.252417,40.913097
Changchun,CGQ,ZYCC,Changchun,CN,CHN,China,43.5412,125.1201
Changchun Railway Station,VWB,,Changchun,CN,CHN,China,43.908167,125.317761
Port armstrong,PTL,,"Port Armstrong, Alaska",US,USA,United States of America,0,0
Cairo Intl,CAI,HECA,Cairo,EG,EGY,Egypt,30.121944,31.405556
Windsor,YQG,CYQG,Windsor,CA,CAN,Canada,42.275556,-82.955556
Tainan,TNN,RCNN,Tainan,TW,TWN,Taiwan,22.950361,120.205778
Copiapo,CPO,SCHA,Copiapo,CL,CHL,Chili,-27,-70
H Hasan Aroeboesman,ENE,WATE,Ende,ID,IDN,Indonesia,-8.849294,121.660644
Manston,MSE,EGMH,Manston,GB,GBR,Great Britain (United Kingdom),51.342222,1.346111
Tinker Afb,TIK,KTIK,"Oklahoma City, OK",US,USA,United States of America,35.414739,-97.386633
Will Rogers World,OKC,KOKC,"Oklahoma City, OK",US,USA,United States of America,35.393089,-97.600733
Inyokern Airport,IYK,KIYK,"Inyokern, California",US,USA,United States of America,35.658889,-117.829444
Sao Pedro,VXE,GVSV,Sao Vicente,CV,CPV,Cape Verde,16.833689,-25.054661
Oskarshamn,OSK,ESMO,Oskarshamn,SE,SWE,Sweden,57.350453,16.497972
Wanxian Airport,WXN,ZUWX,Wanxian,CN,CHN,China,30.8361,108.406
Montreal Intl Mirabel,YMX,CYMX,Montreal,CA,CAN,Canada,45.681944,-74.005278
St Hubert,YHU,CYHU,Montreal,CA,CAN,Canada,45.5175,-73.416944
Central Railway Station,YMY,,Montreal,CA,CAN,Canada,45.499722,-73.566111
Pierre Elliott Trudeau Intl,YUL,CYUL,Montreal,CA,CAN,Canada,45.470556,-73.740833
Dorval Railway Station,XAX,,Montreal,CA,CAN,Canada,45.448611,-73.74111
Santa Genoveva,GYN,SBGO,Goiania,BR,BRA,Brazil,-16.632033,-49.220686
Akola,AKD,VAAK,Akola,IN,IND,India,20.699006,77.058628
Mid-Ohio Valley Regional Airport,PKB,KPKB,"Parkersburg, West Virginia",US,USA,United States of America,39.3451039,-81.4392031
Mariana Grajales,GAO,MUGT,Guantanamo,CU,CUB,Cuba,20.085419,-75.158328
Pagadian,PAG,RPMP,Pagadian,PH,PHL,Philippines,7.827197,123.458294
Palm Island Airport,PMK,YPAM,Palm Island,AU,AUS,Australia,-18.7553,146.581
Adiyaman Airport,ADF,LTCP,Adiyaman,TR,TUR,Turkey,37.7314,38.4689
Cayo Coco Airport,CCC,MUOC,Cayo Coco,CU,CUB,Cuba,22.5132,-78.511
Culiacan Intl,CUL,MMCL,Culiacan,MX,MEX,Mexico,24.764547,-107.474717
H As Hanandjoeddin,TJQ,WIOD,Tanjung Pendan,ID,IDN,Indonesia,-2.745722,107.754917
Frank Pais Intl,HOG,MUHG,Holguin,CU,CUB,Cuba,20.785589,-76.315108
Mitilini,MJT,LGMT,Mytilene,GR,GRC,Greece,39.056667,26.598333
Biniguni,XBN,,Biniguni,PG,PNG,Papua New Guinea,0,0
Presidente Castro Pinto,JPA,SBJP,Joao Pessoa,BR,BRA,Brazil,-7.148381,-34.950681
Kremenchug,KHU,,Kremenchug,UA,UKR,Ukraine,0,0
Sultan Ismail Petra,KBR,WMKC,Kota Bharu,MY,MYS,Malaysia,6.16685,102.293014
Le Raizet,PTP,TFFR,Pointe A Pitre,GP,GLP,Guadeloupe,16.265306,-61.531806
Guanare,GUQ,SVGU,Guanare,VE,VEN,Venezuela,9.026944,-69.75515
Alluitsup Paa Heliport,LLU,BGAP,Alluitsup Paa,GL,GRL,Greenland,60.4644,-45.5778
Hastings Airport,HGS,GFHA,Freetown,SL,SLE,Sierra Leone,8.39713,-13.1291
Freetown Lungi,FNA,GFLL,Freetown,SL,SLE,Sierra Leone,8.616444,-13.195489
Whyalla Airport,WYA,YWHA,Whyalla,AU,AUS,Australia,-33.0589,137.514
Tingo maria,TGI,,Tingo Maria,PE,PER,Peru,-9.13333,-75.95
Port Hope Simpson Airport,YHA,CCP4,Port Hope Simpson,CA,CAN,Canada,52.5281,-56.2861
Sege Airport,EGM,AGGS,Sege,SB,SLB,Solomon Islands,-8.57889,157.876
Sant ana ponta gross,PGZ,,Ponta Grossa,BR,BRA,Brazil,-25.1847,-50.1441
Brochet Airport,YBT,CYBT,Brochet,CA,CAN,Canada,57.889444,-101.679167
Teofilo otoni,TFL,,Teofilo Otoni,BR,BRA,Brazil,-17.8923,-41.5136
Gounda Airport,GDA,,Gounda,CF,CAF,Central African Republic,9.272222,21.197222
Houghton County Memorial Airport,CMX,KCMX,"Hancock, Michigan",US,USA,United States of America,47.1684,-88.4891
Northern Aroostook Regional Airport,WFK,KFVE,"Frenchville, Maine",US,USA,United States of America,47.285556,-68.312778
Mount Pleasant,MPN,EGYP,Mount Pleasant,FK,FLK,Falkland (Malvinas) Islands,-51.822777,-58.447222
King Cove Airport,KVC,PAVC,"King Cove, Alaska",US,USA,United States of America,55.1163,-162.266
Port Moller Airport,PML,PAAL,"Port Moller, Alaska",US,USA,United States of America,56.006111,-160.560833
Rurrenabaque Airport,RBQ,SLRQ,Rurrenabaque,BO,BOL,Bolivia,-14.4275,-67.498056
Abel Santamaria,SNU,MUSC,Santa Clara,CU,CUB,Cuba,22.492192,-79.943611
Yellowstone Rgnl,COD,KCOD,"Cody, WY",US,USA,United States of America,44.520194,-109.023806
Goiabeiras,VIX,SBVT,Vitoria,BR,BRA,Brazil,-20.258056,-40.286389
Salekhard Airport,SLY,USDD,Salehard,RU,RUS,Russian Federation,66.590753,66.611042
Nyeri,NYE,,Nyeri,KE,KEN,Kenya,-0.5,36.96667
Lovell Fld,CHA,KCHA,"Chattanooga, TN",US,USA,United States of America,35.035278,-85.203808
Luanda 4 De Fevereiro,LAD,FNLU,Luanda,AO,AGO,Angola,-8.858375,13.231178
Dr Antonio Agostinho Neto,NBJ,,Luanda,AO,AGO,Angola,-9.046778,13.507194
Thompson,YTH,CYTH,Thompson,CA,CAN,Canada,55.801111,-97.864166
Tiree,TRE,EGPU,Tiree,GB,GBR,Great Britain (United Kingdom),56.499167,-6.869167
Forli,FRL,LIPK,Forli,IT,ITA,Italy,44.194753,12.070094
Comiso,CIY,LICB,Comiso,IT,ITA,Italy,36.9984,14.6069
Contadora Airport,OTD,,Contadora,PA,PAN,Panama,8.62876,-79.0347
Eloy Alfaro Intl,MEC,SEMT,Manta,EC,ECU,Ecuador,-0.946078,-80.678808
El Loa,CJC,SCCF,Calama,CL,CHL,Chili,-22.498175,-68.903575
Paraparaumu,PPQ,NZPP,Paraparaumu,NZ,NZL,New Zealand,-40.904722,174.989167
Niigata,KIJ,RJSN,Niigata,JP,JPN,Japan,37.5711,139.0646
Myrtle Beach Intl,MYR,KMYR,"Myrtle Beach, South Carolina",US,USA,United States of America,33.67975,-78.928333
Matsapha,MTS,FDMS,Manzini,SZ,SWZ,Swaziland,-26.529022,31.307519
Sokcho,SHO,RKND,Manzini,SZ,SWZ,Swaziland,38.142614,128.598556
Wakunai,WKN,,Wakunai,PG,PNG,Papua New Guinea,0,0
Kilaguni,ILU,HKKL,Kilaguni,KE,KEN,Kenya,-2.9,38.073889
Hughenden Airport,HGD,YHUG,Hughenden,AU,AUS,Australia,-20.815,144.225
Lamar Muni,LAA,KLAA,"Lamar, Colorado",US,USA,United States of America,38.069694,-102.6885
Chetumal Intl,CTM,MMCM,Chetumal,MX,MEX,Mexico,18.504667,-88.326847
Wyk auf Foehr,OHR,,Wyk Auf Foehr,DE,DEU,Germany,54.411,8.3145
Toussaint Louverture Intl,PAP,MTPP,Port Au Prince,HT,HTI,Haiti,18.58005,-72.292542
Akunnaaq Heliport,QCU,,Akunnaaq,GL,GRL,Greenland,68.75,-52.3333
Bade,BXD,,Bade,ID,IDN,Indonesia,-7.71463,139.575
Pohnpei Intl,PNI,PTPN,Pohnpei,FM,FSM,Federated States of Micronesia,6.9851,158.208989
Salerno Pontecagnano Airport,QSR,LIRI,Salerno,IT,ITA,Italy,40.6204,14.911294
Salerno railway station,ISR,,Salerno,IT,ITA,Italy,40.683333,14.766667
Gaspe,YGP,CYGP,Gaspe,CA,CAN,Canada,48.775278,-64.478611
Berezovo,EZV,,Berezovo,RU,RUS,Russian Federation,63.921,65.0305
Juan H. White,CAQ,SKCU,Caucasia,CO,COL,Colombia,7.968333,-75.198333
Comandante Espora,BHI,SAZB,Bahia Blanca,AR,ARG,Argentina,-38.724967,-62.169317
Tuzla,TZL,,Tuzla,BA,BIH,Bosnia & Herzegovina,44.45866,18.72478
Cabin creek,CBZ,,"Cabin Creek, Alaska",US,USA,United States of America,0,0
Barreiras Airport,BRA,SNBR,Barreiras,BR,BRA,Brazil,-12.083333,-45
Youngstown Warren Rgnl,YNG,KYNG,"Youngstown Warren, Ohio",US,USA,United States of America,41.260736,-80.679097
Cotulla Lasalle Co,COT,KCOT,"Cotulla, Texas",US,USA,United States of America,28.456694,-99.220294
Kasaan,KXA,,"Kasaan, Alaska",US,USA,United States of America,55.53684,-132.39937
Wrangell Airport,WRG,PAWG,"Wrangell, Alaska",US,USA,United States of America,56.4843,-132.37
Kirkuk AB,KIK,ORKK,Kirkuk,IQ,IRQ,Iraq,35.17,44.3483
Holloman Afb,HMN,KHMN,"Alamogordo, New Mexico",US,USA,United States of America,32.852519,-106.106525
Alamogordo White Sands Regional Airport,ALM,KALM,"Alamogordo, New Mexico",US,USA,United States of America,32.8399,-105.991
Fane Airport,FNE,,Fane,PG,PNG,Papua New Guinea,-8.55,147.083
Obando Airport,PDA,SKPD,Puerto Inirida,CO,COL,Colombia,3.85,-67.91
Monaco,MCM,,Monte Carlo,MC,MCO,Monaco,43.73333333,7.41666666
Timimoun,TMX,DAUT,Timimoun,DZ,DZA,Algeria,29.237119,0.276033
Mafia,MFA,HTMA,Mafia,TZ,TZA,Tanzania,-7.913889,39.665
Tiksi Airport,IKS,UEST,Tiksi,RU,RUS,Russian Federation,71.6977,128.903
Miami University Airport,OXD,,"Oxford, Ohio",US,USA,United States of America,39.5022607,-84.7843814
Kjevik,KRS,ENCN,Kristiansand,NO,NOR,Norway,58.204214,8.085369
Victoria River Downs Airport,VCD,YVRD,Victoria River Do,AU,AUS,Australia,-16.4033,131.002
Tonghua Sanyuanpu,TNH,,Tonghua,CN,CHN,China,42.253889,125.703889
Pietermaritzburg,PZB,FAPM,Pietermaritzburg,ZA,ZAF,South Africa,-29.648975,30.398667
Ted Stevens Anchorage Intl,ANC,PANC,"Anchorage, Alaska",US,USA,United States of America,61.174361,-149.996361
Merrill Fld,MRI,PAMR,"Anchorage, Alaska",US,USA,United States of America,61.213544,-149.844447
Elmendorf Afb,EDF,PAED,"Anchorage, Alaska",US,USA,United States of America,61.250986,-149.806503
Charlo,YCL,CYCL,Charlo,CA,CAN,Canada,47.990833,-66.330278
Abraham Gonzalez Intl,CJS,MMCS,Ciudad Juarez,MX,MEX,Mexico,31.636133,-106.428667
Lubango,SDD,FNUB,Lubango,AO,AGO,Angola,-14.924733,13.575022
Rubem Berta,URG,SBUG,Uruguaiana,BR,BRA,Brazil,-29.782178,-57.038189
Yakima Air Terminal McAllister Field,YKM,KYKM,"Yakima, Washington",US,USA,United States of America,46.5682,-120.544
New Bight Airport,CAT,MYCB,Cat Island,BS,BHS,Bahamas,24.315292,-75.452331
Glen Innes,GLI,YGLI,Glen Innes,AU,AUS,Australia,-29.675,151.69
Sparrevohn Lrrs,SVW,PASV,"Sparrevohn, Alaska",US,USA,United States of America,61.097369,-155.574228
Fourchambault,NVS,LFQG,Nevers,FR,FRA,France,47.002625,3.113333
Koh kong,KKZ,,Koh Kong,KH,KHM,Cambodia,11.6134,102.99708
Ulanhot Airport,HLH,ZBUL,Ulanhot,CN,CHN,China,46.083,122.017
Ercan International Airport,ECN,LCEN,Ercan,CY,CYP,Cyprus,35.1547,33.4961
Mariscal Sucre Intl,UIO,SEQU,Quito,EC,ECU,Ecuador,-0.141144,-78.488214
Mus Airport,MSR,LTCK,Mus,TR,TUR,Turkey,38.747769,41.661236
Belmont Airport,BEO,YPEC,Newcastle,AU,AUS,Australia,-33.066667,151.648333
Newcastle Airport,NTL,YWLM,Newcastle,AU,AUS,Australia,-32.78,151.83
Skovde,KVB,ESGR,Skovde,SE,SWE,Sweden,58.4564,13.972672
Beica Airport,BEI,HABE,Beica,ET,ETH,Ethiopia,9.38639,34.5219
Wales Airport,WAA,PAIW,"Wales, Alaska",US,USA,United States of America,65.6225,-168.095
Brown Field Municipal Airport,SDM,KSDM,"San Diego, California",US,USA,United States of America,32.5722722,-116.9801611
Gillespie,SEE,KSEE,"San Diego, California",US,USA,United States of America,32.8262222,-116.9724444
Miramar Mcas,NKX,KNKX,"San Diego, California",US,USA,United States of America,32.867694,-117.14175
Montgomery Field,MYF,,"San Diego, California",US,USA,United States of America,32.4759,117.759
North Island Nas,NZY,KNZY,"San Diego, California",US,USA,United States of America,32.699219,-117.21531
McClellan-Palomar Airport,CLD,KCRQ,"San Diego, California",US,USA,United States of America,33.0742,-117.1648
San Diego Intl,SAN,KSAN,"San Diego, California",US,USA,United States of America,32.733556,-117.189667
Frankfurt Oder Hbf,ZFR,,Frankfurt Oder,DE,DEU,Germany,52.336944,14.547222
Stuart island,SSW,,"Stuart Island, Washington",US,USA,United States of America,0,0
Greater Cumberland Rgnl.,CBE,KCBE,"Cumberland, Maryland",US,USA,United States of America,39.615278,-78.760556
St Catherine Intl,SKV,HESC,Santa Katarina,EG,EGY,Egypt,28.685278,34.0625
Campbell River,YBL,CYBL,Campbell River,CA,CAN,Canada,49.950832,-125.270833
Lalibella,LLI,HALL,Lalibela,ET,ETH,Ethiopia,11.975014,38.979969
Newman Airport,ZNE,YNWN,Newman,AU,AUS,Australia,-23.4178,119.803
Sanandaj,SDG,OICS,Sanandaj,IR,IRN,Iran,35.245856,47.009247
Repulse Bay,YUT,CYUT,Repulse Bay,CA,CAN,Canada,66.521389,-86.224722
Anaco,AAO,SVAN,Anaco,VE,VEN,Venezuela,9.430225,-64.470725
General Abelardo L Rodriguez Intl,TIJ,MMTJ,Tijuana,MX,MEX,Mexico,32.541064,-116.970158
Baton Rouge Metro Ryan Fld,BTR,KBTR,"Baton Rouge, Louisiana",US,USA,United States of America,30.533167,-91.149639
Sarh Airport,SRH,FTTA,Sarh,TD,TCD,Chad,9.14444,18.3744
Villa Gesell,VLG,SAZV,Villa Gesell,AR,ARG,Argentina,-37.235408,-57.029239
Boscobel,OCJ,MKBS,Ocho Rios,JM,JAM,Jamaica,18.404247,-76.969017
Ailuk Airport,AIM,,Ailuk Island,MH,MHL,Marshall Islands,10.2168,169.983
Bandirma,BDM,LTBG,Bandirma,TR,TUR,Turkey,40.317972,27.977694
Goose Bay,YYR,CYYR,Goose Bay,CA,CAN,Canada,53.319168,-60.425833
Caye Caulker Airport,CUK,,Caye Caulker,BZ,BLZ,Belize,17.7347,-88.0325
Watson Lake,YQH,CYQH,Watson Lake,CA,CAN,Canada,60.116389,-128.8225
Samui,USM,VTSM,Koh Samui,TH,THA,Thailand,9.547794,100.062272
Sentani,DJJ,WAJJ,Jayapura,ID,IDN,Indonesia,-2.576953,140.516372
Morondava,MOQ,FMMV,Morondava,MG,MDG,Madagascar,-20.28475,44.317614
Barinas,BNS,SVBI,Barinas,VE,VEN,Venezuela,8.619575,-70.220825
Surigao Airport,SUG,RPMS,Surigao,PH,PHL,Philippines,9.757567,125.479328
Nan,NNT,VTCN,Nan,TH,THA,Thailand,18.807914,100.783419
Burgdorf rail,ZDP,,Burgdorf,CH,CHE,Switzerland,0,0
Olympic Dam Airport,OLP,YOLD,Olympic Dam,AU,AUS,Australia,-30.485,136.877
Devonport Airport,DPO,YDPO,Devonport,AU,AUS,Australia,-41.1697,146.43
Bagdogra,IXB,VEBD,Bagdogra,IN,IND,India,26.681206,88.328567
Balandino,CEK,USCC,Chelyabinsk,RU,RUS,Russian Federation,55.305836,61.503333
Josefa Camejo,LSP,SVJC,Las Piedras,VE,VEN,Venezuela,11.780775,-70.151497
Zahedan Intl,ZAH,OIZH,Zahedan,IR,IRN,Iran,29.475686,60.906189
Lyneham,LYE,EGDL,Lyneham,GB,GBR,Great Britain (United Kingdom),51.505144,-1.993428
Mosteiros,MTI,,Mosteiros,CV,CPV,Cape Verde,15.045,-24.3392
Marham,KNF,EGYM,Kings Lynn,GB,GBR,Great Britain (United Kingdom),52.648353,0.550692
The bight,TBI,,The Bight,BS,BHS,Bahamas,24.31425,-75.45882
Annaba,AAE,DABB,Annaba,DZ,DZA,Algeria,36.822225,7.809167
Holy Cross Airport,HCR,PAHC,"Holy Cross, Alaska",US,USA,United States of America,62.1883,-159.775
Portland Intl Jetport,PWM,KPWM,"Portland, Maine",US,USA,United States of America,43.646161,-70.309281
Colonsay Airport,CSA,EGEY,Colonsay Is,GB,GBR,Great Britain (United Kingdom),56.0575,-6.243056
Livingood Airport,LIV,,"Livengood, Alaska",US,USA,United States of America,65.531111,-148.541111
Masirah,MSH,OOMA,Masirah,OM,OMN,Oman,20.675434,58.890467
Palm Beach Intl,PBI,KPBI,"West Palm Beach, Florida",US,USA,United States of America,26.683161,-80.095589
Palm Beach Co Park,LNA,KLNA,"West Palm Beach, Florida",US,USA,United States of America,26.593,-80.085056
WEST PALM BEACH,WPT,,"West Palm Beach, Florida",US,USA,United States of America,26.712311,-80.062297
North Caicos,NCA,MBNC,North Caicos,TC,TCA,Turks and Caicos Islands,21.917475,-71.939561
Chisinau Intl,RMO,LUKK,Chisinau,MD,MDA,Moldova,46.927744,28.930978
Poplar Bluff Municipal Airport,POF,KPOF,"Poplar Bluff, Missouri",US,USA,United States of America,36.77394444,-90.3248611
Waspam Airport,WSP,MNWP,Waspam,NI,NIC,Nicaragua,14.737778,-83.975833
Biessenhofen BF,BIE,BIES,"Beatrice, Nebraska",US,USA,United States of America,47.851,10.634
Dubbo,DBO,YSDU,Dubbo,AU,AUS,Australia,-32.216667,148.574722
Chippewa Valley Regional Airport,EAU,KEAU,"Eau Claire, WI",US,USA,United States of America,44.8658,-91.4843
Presidente Juscelino Kubitschek,BSB,SBBR,Brasilia,BR,BRA,Brazil,-15.8711,-47.918625
LM Clayton Airport,OLF,KOLF,"Wolf Point, Montana",US,USA,United States of America,48.094444,-105.575
Tamworth,TMW,YSTW,Tamworth,AU,AUS,Australia,-31.083889,150.846667
Lynn Lake,YYL,CYYL,Lynn Lake,CA,CAN,Canada,56.863888,-101.07611
Kasongo Lunda,KGN,FZOK,Kasongo Lunda,CD,COD,"Congo, Democratic Republic of the",-6.583333,16.816668
Pelican Seaplane Base,PEC,,"Pelican, Alaska",US,USA,United States of America,57.955278,-136.236389
Muzaffarabad,MFG,OPMF,Muzaffarabad,PK,PAK,Pakistan,34.339022,73.508639
Ca Mau,CAH,VVCM,Ca Mau,VN,VNM,Viet Nam,9.188049,105.174721
Hernesaari Heliport,HEN,EFHE,Hendon,GB,GBR,Great Britain (United Kingdom),60.1478,24.9244
South molle island,SOI,,South Molle Islan,AU,AUS,Australia,0,0
El Porvenir,PVE,,El Porvenir,PA,PAN,Panama,9.559167,-78.971111
Komatsu,KMQ,RJNK,Komatsu,JP,JPN,Japan,36.394611,136.406544
Wajir,WJR,HKWJ,Wajir,KE,KEN,Kenya,1.733239,40.091606
Sikeston Memorial Municipal,SIK,KSIK,"Sikeston, Missouri",US,USA,United States of America,36.8988889,-89.56175
Long Island Mac Arthur,ISP,KISP,"Islip, New York",US,USA,United States of America,40.79525,-73.100222
Camilo Daza,CUC,SKCC,Cucuta,CO,COL,Colombia,7.927567,-72.511547
Yellowstone Airport,WYS,KWYS,"West Yellowstone, Montana",US,USA,United States of America,44.688333,-111.1175
Marília Airport,MII,SBML,Marilia,BR,BRA,Brazil,-22.196892,-49.9264
Flat,FLT,,"Flat, Alaska",US,USA,United States of America,0,0
Maquehue,ZCO,SCTC,Temuco,CL,CHL,Chili,-38.766819,-72.637097
Waterbury-Oxford Airport,OXC,KOXC,"Oxford, Connecticut",US,USA,United States of America,41.4785556,-73.13525
Tinian Intl,TIQ,PGWT,Tinian,MP,MNP,Northern Mariana Islands,14.999203,145.61935
Norsup Airport,NUS,NVSP,Norsup,VU,VUT,Vanuatu,-16.0797,167.401
Crooked Creek Airport,CKD,,"Crooked Creek, Alaska",US,USA,United States of America,61.867778,-158.135
Muskegon County Airport,MKG,KMKG,"Muskegon, Michigan",US,USA,United States of America,43.1695,-86.2382
Petropavlosk,PPK,UACP,Petropavlovsk,KZ,KAZ,Kazakhstan,54.7747,69.1839
Trà Nóc Airport,VCA,VVCT,Can Tho,VN,VNM,Viet Nam,10.085119,105.711922
Ostbahnhof,BHF,,Bahia Cupica,CO,COL,Colombia,52.51,13.434722
Flores,FLW,LPFL,Flores Island,PT,PRT,Portugal,39.455272,-31.131361
Gemena,GMA,FZFK,Gemena,CD,COD,"Congo, Democratic Republic of the",3.235369,19.771258
Whidbey Island Nas,NUW,KNUW,"Whidbey Island, Washington",US,USA,United States of America,48.351803,-122.655906
Varna,VAR,LBWN,Varna,BG,BGR,Bulgaria,43.232072,27.825106
Parasi,PRS,,Parasi,SB,SLB,Solomon Islands,-9.64167,161.425
Dalaman,DLM,LTBS,Dalaman,TR,TUR,Turkey,36.713056,28.7925
Charleville,CTL,YBCV,Charleville,AU,AUS,Australia,-26.413334,146.2625
Yonaguni,OGN,ROYN,Yonaguni Jima,JP,JPN,Japan,24.466944,122.977778
Pitalito,PTX,,Pitalito,CO,COL,Colombia,1.85777,-76.0857
Saint Louis,XLS,GOSS,Saint Louis,SN,SEN,Senegal,16.050761,-16.463172
Ganja Airport,GNJ,UBBG,Gyandzha,AZ,AZE,Azerbaijan,40.7377,46.3176
Canberra,CBR,YSCB,Canberra,AU,AUS,Australia,-35.306944,149.195
Lydd,LYX,EGMD,Lydd,GB,GBR,Great Britain (United Kingdom),50.956111,0.939167
Oudomxay,ODY,VLOS,Oudomxay,LA,LAO,Lao People's Democratic Republic,20.6827,101.994
Aktyubinsk,AKX,UATT,Aktobe,KZ,KAZ,Kazakhstan,50.245833,57.206667
Little Grand Rapids Airport,ZGR,CZGR,Little Grand Rapids,CA,CAN,Canada,52.045,-95.466111
Sangster Intl,MBJ,MKJS,Montego Bay,JM,JAM,Jamaica,18.503717,-77.913358
Pompano Beach Airpark,PMP,KPMP,Pimaga,PG,PNG,Papua New Guinea,26.2471389,-80.1110556
Gustavo Rizo,BCA,MUBA,Baracoa,CU,CUB,Cuba,20.365317,-74.506206
King Abdulaziz Ab,DHA,OEDR,Dhahran,SA,SAU,Saudi Arabia,26.265417,50.152027
Townsville,TSV,YBTL,Townsville,AU,AUS,Australia,-19.2525,146.765278
Oak harbor,ODW,,"Oak Harbor, Washington",US,USA,United States of America,0,0
Osvaldo Vieira International Airport,OXB,GGOV,Bissau,GW,GNB,Guinea-Bissau,11.89485,-15.653681
Tabuk,TUU,OETB,Tabuk,SA,SAU,Saudi Arabia,28.365417,36.618889
Yuba County Airport,MYV,KMYV,"Marysville, California",US,USA,United States of America,39.0553,-121.3411
Beale Afb,BAB,KBAB,"Marysville, California",US,USA,United States of America,39.136089,-121.436567
Jimma,JIM,HAJM,Jimma,ET,ETH,Ethiopia,7.666094,36.816639
Vatomandry,VAT,,Vatomandry,MG,MDG,Madagascar,-19.38333,48.95
Wainwright Airport,AIN,PAWI,"Wainwright, Alaska",US,USA,United States of America,70.638056,-159.994722
Wainwright As,K03,PAWT,"Wainwright, Alaska",US,USA,United States of America,70.613378,-159.86035
Humberside,HUY,EGNJ,Humberside,GB,GBR,Great Britain (United Kingdom),53.574444,-0.350833
Barnstable Muni Boardman Polando Fld,HYA,KHYA,"Hyannis, Massachusetts",US,USA,United States of America,41.669336,-70.280356
San Salvador,ZSA,MYSM,San Salvador,BS,BHS,Bahamas,24.063275,-74.523967
Cataratas Del Iguazu,IGR,SARI,Iguazu,AR,ARG,Argentina,-25.737281,-54.473444
Oguzeli,GZT,LTAJ,Gaziantep,TR,TUR,Turkey,36.947183,37.478683
Pashkovskiy,KRR,URKK,Krasnodar,RU,RUS,Russian Federation,45.034689,39.170539
Saidpur,SPD,VGSD,Saidpur,BD,BGD,Bangladesh,25.759228,88.908869
Kandrian Airport,KDR,,Kandrian,PG,PNG,Papua New Guinea,-6.183,149.533
Rio mayo,ROY,,Rio Mayo,AR,ARG,Argentina,-45.7039,-70.2456
Lamidanda,LDN,VNLD,Lamidanda,NP,NPL,Nepal,27.253117,86.670044
Gare de Lyon,PLY,,"Plymouth, Indiana",US,USA,United States of America,48.844722,2.373611
Mobile Downtown,BFM,KBFM,"Mobile, Alabama",US,USA,United States of America,30.626783,-88.068092
Mobile Rgnl,MOB,KMOB,"Mobile, Alabama",US,USA,United States of America,30.691231,-88.242814
Axum,AXU,HAAX,Axum,ET,ETH,Ethiopia,14.14675,38.772833
Davis Fld,MKO,KMKO,"Muskogee, Oklahoma",US,USA,United States of America,35.656489,-95.366656
Sui,SUL,OPSU,Sui,PK,PAK,Pakistan,28.645142,69.176917
Nemiscau Airport,YNS,CYHH,Nemiscau,CA,CAN,Canada,51.6911,-76.1356
Grenchen Sud railway station,ZHI,,Grenchen,CH,CHE,Switzerland,47.188694,7.398389
Casa De Campo Intl,LRM,MDLR,La Romana,DO,DOM,Dominican Republic,18.450711,-68.911833
Coari Airport,CIZ,SWKO,Coari,BR,BRA,Brazil,-4.085,-63.140833
Bintulu,BTU,WBGB,Bintulu,MY,MYS,Malaysia,3.12385,113.020472
Macomb Municipal Airport,MQB,,"Macomb, Illinois",US,USA,United States of America,40.5200833,-90.6523889
Nioki Airport,NIO,FZBI,Nioki,CD,COD,"Congo, Democratic Republic of the",-2.7175,17.6847
Bassatine,MEK,GMFM,Meknes,MA,MAR,Marocco,33.879067,-5.515125
Pullman-Moscow Rgnl,PUW,KPUW,"Pullman, Washington",US,USA,United States of America,46.743861,-117.109583
Plaine Corail,RRG,FIMR,Rodrigues Is,MU,MUS,Mauritius,-19.757658,63.360983
Tela,TEA,MHTE,Tela,HN,HND,Honduras,15.775864,-87.475847
Tucuma,TUZ,,Tucuma,BR,BRA,Brazil,0,0
Parks,KPK,,"Parks, Alaska",US,USA,United States of America,0,0
Luang Phabang Intl,LPQ,VLLB,Luang Prabang,LA,LAO,Lao People's Democratic Republic,19.897914,102.160764
Minot Intl,MOT,KMOT,"Minot, North Dakota",US,USA,United States of America,48.259378,-101.280333
Minot Afb,MIB,KMIB,"Minot, North Dakota",US,USA,United States of America,48.415572,-101.357661
Yola,YOL,DNYO,Yola,NG,NGA,Nigeria,9.257553,12.430422
Eday Airport,EOI,EGED,Eday,GB,GBR,Great Britain (United Kingdom),59.1906,-2.77222
Yap Intl,YAP,PTYA,Yap,FM,FSM,Federated States of Micronesia,9.498911,138.082497
Cold Lake,YOD,CYOD,Cold Lake,CA,CAN,Canada,54.404999,-110.279444
Beaufort County,BFT,KARW,"Beaufort, South Carolina",US,USA,United States of America,32.410935,-80.634499
St. Peter-Ording Airport,PSH,EDXO,Saint Peter,DE,DEU,Germany,54.3089,8.68694
Gobernador Gregores Airport,GGS,SAWR,Gdor Gregores,AR,ARG,Argentina,-48.7831,-70.15
Zaporizhzhia International Airport,OZH,UKDE,Zaporizhia,RU,RUS,Russian Federation,47.867,35.3157
Carajas Airport,CKS,SBCJ,Carajas,BR,BRA,Brazil,-6.11781,-50.0035
Skelleftea,SFT,ESNS,Skelleftea,SE,SWE,Sweden,64.624772,21.076892
Coronel Fap Alfredo Mendivil Duarte,AYP,SPHO,Ayacucho,PE,PER,Peru,-13.154819,-74.204417
Sulayel,SLF,OESL,Sulayel,SA,SAU,Saudi Arabia,20.464744,45.619644
Goodnews Airport,GNU,,"Goodnews Bay, Alaska",US,USA,United States of America,59.1175,-161.5775
Blagnac,TLS,LFBO,Toulouse,FR,FRA,France,43.629075,1.363819
Montaudran,XYT,,Toulouse,FR,FRA,France,0,0
Veliky Ustyug,VUS,ULWU,Velikiy Ustyug,RU,RUS,Russian Federation,60.788333,46.26
North Eleuthera,ELH,MYEH,North Eleuthera,BS,BHS,Bahamas,25.474861,-76.683489
Reading Regional Carl A Spaatz Field,RDG,KRDG,"Reading, Pennsylvania",US,USA,United States of America,40.3785,-75.9652
Mangrove cay,MAY,,Mangrove Cay,BS,BHS,Bahamas,0,0
Jingdezhen Airport,JDZ,ZSJD,Jingdezhen,CN,CHN,China,29.3386,117.176
Gallatin Field,BZN,KBZN,"Bozeman, Montana",US,USA,United States of America,45.777643,-111.160151
BEIJING NANYUAN,NAY,ZBBB,Beijing,CN,CHN,China,39.7825,116.387778
BEIJING CAPITAL INTL,PEK,ZBAA,Beijing,CN,CHN,China,40.080111,116.584556
Beijing,BJS,,Beijing,CN,CHN,China,39.904167,116.407222
BEIJING DAXING INTL,PKX,,Beijing,CN,CHN,China,39.509466,116.410919
Lensk,ULK,UERL,Lensk,RU,RUS,Russian Federation,60.723,114.825
Cascavel,CAC,SBCA,Cascavel,BR,BRA,Brazil,-25.000339,-53.500764
General Servando Canales Intl,MAM,MMMA,Matamoros,MX,MEX,Mexico,25.769894,-97.525311
Puvirnituq Airport,YPX,CYPX,Puvimitug,CA,CAN,Canada,60.0506,-77.2869
Rumjatar,RUM,VNRT,Rumjatar,NP,NPL,Nepal,27.303509,86.55043
Canakkale Airport,CKZ,LTBH,Canakkale,TR,TUR,Turkey,40.137722,26.426777
Syros Airport,JSY,LGSO,Syros Island,GR,GRC,Greece,37.422792,24.950936
Norway House Airport,YNE,CYNE,Norway House,CA,CAN,Canada,53.9583,-97.8442
Central rr station,ZMI,,Naples,IT,ITA,Italy,0,0
Capodichino,NAP,LIRN,Naples,IT,ITA,Italy,40.886033,14.290781
NAPOLI AFRAGOLA,NHR,,Naples,IT,ITA,Italy,40.931389,14.331111
Cantral Railway Stn,INP,,Naples,IT,ITA,Italy,0,0
Ricardo García Posada Airport,ESR,SCES,El Salvador,CL,CHL,Chili,-26.3111,-69.7652
Kissimmee Gateway Airport,ISM,KISM,"Kissimmee, Florida",US,USA,United States of America,28.289806,-81.437083
Northolt,NHT,EGWU,Northolt,GB,GBR,Great Britain (United Kingdom),51.553,-0.418167
Mokpo Airport,MPK,RKJM,Mokpo,KR,KOR,Korea (South),34.758906,126.379872
Octeville,LEH,LFOH,Le Havre,FR,FRA,France,49.533889,0.088056
Carriel Sur Intl,CCP,SCIE,Concepcion,CL,CHL,Chili,-36.77265,-73.063106
Man,MJC,DIMN,Man,CI,CIV,Cote d'Ivoire,7.272069,-7.587364
